,행정구역,학원이름,주소,상세주소,위도,경도,분야명
0,동대문구,한국이용학원,서울특별시 동대문구 왕산로33길 32,", 2층  (제기동)",37.5813124,127.0418065,직업기술
1,동대문구,대성회계실무학원,서울특별시 동대문구 왕산로 225,", 5층2호?5층6호?5층7호 중 일부(B호) (청량리동, 미주상가)",37.5820441,127.0472342,종합(대)
2,동대문구,국제전자과학학원,서울특별시 동대문구 고산자로36길 3,", 3층 일부 (제기동, 경동시장)",37.5791791,127.0398099,직업기술
3,동대문구,조이앤플레이음악학원,서울특별시 동대문구 이문로 38,", 3층 301호 (휘경동, 민족통일빌딩)",37.5951782,127.0593706,예능(대)
4,동대문구,한독자동차정비학원,서울특별시 동대문구 왕산로 31,", 2층,3층 (신설동)",37.5774132,127.0295723,직업기술
5,동대문구,장안로드맵수학학원,서울특별시 동대문구 한천로 124,", 2층 202호 (장안동)",37.5995567,127.0675418,입시.검정 및 보습
6,동대문구,더하이스트수학학원,서울특별시 동대문구 사가정로 190,", 상가4층 8,9호 (전농동, 전농우성아파트)",37.5701008,127.0489781,입시.검정 및 보습
7,동대문구,미래사관학원,서울특별시 동대문구 천호대로16길 12,3층4층 (용두동),37.5723504,127.0315105,입시.검정 및 보습
8,동대문구,주미음악학원,서울특별시 동대문구 장한로30길 31,3층 (장안동),37.5742647,127.0739256,예능(대)
9,동대문구,새암음악학원,서울특별시 동대문구 답십리로72길 118,5층 (장안동),37.5688334,127.0729248,예능(대)
10,동대문구,예술의악당음악학원,서울특별시 동대문구 이문로1길 16-3,", 2층 (회기동)",37.5889719,127.0537317,예능(대)
11,동대문구,루체음악학원,서울특별시 동대문구 천호대로77길 89,2층 (장안동),37.5645133,127.0623478,예능(대)
12,동대문구,맨하탄학원,서울특별시 동대문구 황물로 42,", 2층일부 (답십리동)",37.5710005,127.0496624,입시.검정 및 보습
13,동대문구,한영보습학원,서울특별시 동대문구 답십리로23길 59,(2층) (전농동),37.5774527,127.0506786,입시.검정 및 보습
14,동대문구,수학엠플러스학원,서울특별시 동대문구 한천로 165,", 3층 일부 (답십리동)",37.5702311,127.0642937,입시.검정 및 보습
15,동대문구,대우건축토목학원,서울특별시 동대문구 하정로 36,", 5층  (신설동)",37.5728754,127.0272069,직업기술
16,동대문구,진주컴퓨터학원,서울특별시 동대문구 홍릉로15길 43,", 2층 (제기동)",37.5852717,127.0416142,기타(대)
17,동대문구,SDA삼육외국어학원,서울특별시 동대문구 망우로18길 33,", 가동 1층?2층 (휘경동)",37.5884345,127.0627235,종합(대)
18,동대문구,교원더퍼스트캠퍼스학원,서울특별시 동대문구 이문로 65,", 2층 및 3층 일부 (이문동)",37.5951782,127.0593706,입시.검정 및 보습
19,동대문구,미시간캠퍼스어학원,서울특별시 동대문구 휘경로 39,4층일부 (이문동),37.5948895,127.06431037460806,국제화
20,동대문구,수재학원,서울특별시 동대문구 답십리로 133,", 1층, 2층 (답십리동)",37.5765595,127.0465065,입시.검정 및 보습
21,동대문구,수정음악학원,서울특별시 동대문구 답십리로66길 99,(2층) (장안동),37.5688153,127.0676829,예능(대)
22,동대문구,이문보습학원,서울특별시 동대문구 한천로 481,", 2층  (이문동)",37.5702311,127.0642937,입시.검정 및 보습
23,동대문구,중앙플러스학원,서울특별시 동대문구 천호대로77길 94,2층 (장안동),37.5645133,127.0623478,입시.검정 및 보습
24,동대문구,교우보습학원,서울특별시 동대문구 사가정로 93,", 3층일부 (전농동,동광교회)",37.5701008,127.0489781,입시.검정 및 보습
25,동대문구,이화포르테미술학원,서울특별시 동대문구 답십리로72길 112,2층 (장안동),37.5688334,127.0729248,예능(대)
26,동대문구,예솔피아노학원,서울특별시 동대문구 제기로 131,"한신아파트 상가121동3층306,307,308호 (청량리동)",37.5875129,127.04764207708357,예능(대)
27,동대문구,이레음악학원,서울특별시 동대문구 제기로 131,한신A.상가122동4층 (청량리동),37.5875129,127.04764207708357,예능(대)
28,동대문구,한양음악학원,서울특별시 동대문구 한천로 246,", 유치원동 4층일부 (휘경동,주공아파트)",37.582816300000005,127.0687545468601,예능(대)
29,동대문구,씨앤씨어학원,서울특별시 동대문구 전농로 60,", 2층, 3층, 4층 (답십리동, 상원빌딩)",37.5836734,127.0533383,국제화
30,동대문구,에프엠(FM)최강수학학원,서울특별시 동대문구 전농로 120,", 2층 (전농동)",37.5836734,127.0533383,입시.검정 및 보습
31,동대문구,신등용문보습학원,서울특별시 동대문구 경희대로4길 79,", 2층 (이문동)",37.5913675,127.0567283,입시.검정 및 보습
32,동대문구,덕수컴퓨터회계학원,서울특별시 동대문구 전농로 135,(3층4층) (전농동),37.56888,127.0571,종합(대)
33,동대문구,오경숙음악학원,서울특별시 동대문구 사가정로 148,", 409,410호 (전농동, 전농 SK아파트 주상가동)",37.5701008,127.0489781,예능(대)
34,동대문구,PJY실용음악학원,서울특별시 동대문구 사가정로 148,", 상가동414호 (전농동, 전농 SK아파트)",37.5701008,127.0489781,예능(대)
35,동대문구,서울음악학원,서울특별시 동대문구 답십리로56길 21,", 상가 304호 (답십리동, 두산아파트)",37.5687047,127.0587649,예능(대)
36,동대문구,수학을읽다학원,서울특별시 동대문구 답십리로69길 8,", 3층우측 (장안동)",37.572703,127.0740001,입시.검정 및 보습
37,동대문구,성신음악전문학원,서울특별시 동대문구 서울시립대로4길 35,", 2층 (답십리동)",37.5747236,127.0473065,예능(대)
38,동대문구,연세학원,서울특별시 동대문구 사가정로 148,", 주상가동 412-2호  (전농동,전농 SK아파트)",37.5701008,127.0489781,입시.검정 및 보습
39,동대문구,동부연세피아노학원,서울특별시 동대문구 왕산로43나길 20,1층 (청량리동),37.5856013,127.0477732,예능(대)
40,동대문구,김영애음악학원,서울특별시 동대문구 한천로58길 47,", 상가동 401호 (이문동, 쌍용아파트)",37.5986527,127.06883,예능(대)
41,동대문구,예일어학원,서울특별시 동대문구 답십리로 238,2층3층4층 (장안동),37.5765595,127.0465065,국제화
42,동대문구,신서울(I.N)아이엔학원,서울특별시 동대문구 무학로42길 45,", 3층 (제기동)",37.5819681,127.0304292,입시.검정 및 보습
43,동대문구,예인학원,서울특별시 동대문구 한천로 97,", 3층 (답십리동)",37.5702311,127.0642937,입시.검정 및 보습
44,동대문구,교일학원,서울특별시 동대문구 약령시로 16,", 2층일부 (제기동)",37.5828182,127.0351019,입시.검정 및 보습
45,동대문구,에꼴드에땅장안미술학원,서울특별시 동대문구 장한로28길 14,",  2층 (장안동)",37.572841749999995,127.07270085921036,예능(대)
46,동대문구,스토리영어EM학원,서울특별시 동대문구 장한로28길 48,", 2층일부 (장안동)",37.572664950000004,127.07461485,입시.검정 및 보습
47,동대문구,에이펙스학원,서울특별시 동대문구 답십리로72길 118,4층 (장안동),37.5688334,127.0729248,입시.검정 및 보습
48,동대문구,포르테음악학원,서울특별시 동대문구 한천로11길 10-1,동아아파트 상가2동302호 (답십리동),37.5671421,127.0588169,예능(대)
49,동대문구,이보영의토킹클럽장안학원,서울특별시 동대문구 답십리로69길 8,", 401호 (장안동,장안동 근린생활시설)",37.572703,127.0740001,입시.검정 및 보습
50,동대문구,하이든음악학원,서울특별시 동대문구 약령시로 25,", 상가1동 204호,207호,208호 (제기동,안암골 벽산아파트)",37.5828182,127.0351019,예능(대)
51,동대문구,사랑음악교습소,서울특별시 동대문구 한천로11길 28,", 1층일부 (답십리동)",37.5671421,127.0588169,예능(대)
52,동대문구,달크로즈뮤직슐레음악학원,서울특별시 동대문구 답십리로69길 55,웰빙프라자402호 (장안동),37.5747609,127.0739723,예능(대)
53,동대문구,대화단과학원,서울특별시 동대문구 사가정로 97,", 한성빌딩 2층 (전농동)",37.5701008,127.0489781,입시.검정 및 보습
54,동대문구,3관수학생각학원,서울특별시 동대문구 장한로28길 50,", 3층 일부 (장안동)",37.5726621,127.0747791,입시.검정 및 보습
55,동대문구,신답점뮤엠영어교습소,서울특별시 동대문구 서울시립대로 31,", 102동 상가동 208호 (전농동, 동아아파트)",37.5760293,127.0471019,입시.검정 및 보습
56,동대문구,153수학교습소,서울특별시 동대문구 이문로16길 18,"래미안2차아파트 상가동201호, 203호 (이문동)",37.5942119,127.0602229,입시.검정 및 보습
57,동대문구,이보영의토킹클럽전농보습학원,서울특별시 동대문구 사가정로 148,", 주상가동 309호 (전농동,전농 SK아파트)",37.5701008,127.0489781,입시.검정 및 보습
58,동대문구,하바놀이어학원,서울특별시 동대문구 답십리로69길 55,", 304호 (장안동,웰빙프라자)",37.5747609,127.0739723,국제화
59,동대문구,청담어학원,서울특별시 동대문구 한천로 124,", 3층,4층 (장안동,장안동 근린생활시설)",37.5995567,127.0675418,국제화
60,동대문구,엘리트영어교습소,서울특별시 동대문구 장한로 160,", 3층 309호 (장안동)",37.561392,127.064624,입시.검정 및 보습
61,동대문구,이화포르테리틀밥영어교습소,서울특별시 동대문구 답십리로72길 112,1층 (장안동),37.5688334,127.0729248,입시.검정 및 보습
62,동대문구,이화포르테음악학원,서울특별시 동대문구 답십리로72길 112,", 3층 (장안동)",37.5688334,127.0729248,예능(대)
63,동대문구,SBS아카데미뷰티스쿨(동대문1캠퍼스)학원,서울특별시 동대문구 왕산로 4,", 512호 (신설동)",37.5811037,127.04845240270879,직업기술
64,동대문구,나루네논술교습소,서울특별시 동대문구 제기로 131,한신아파트 상가304호 (청량리동),37.5875129,127.04764207708357,입시.검정 및 보습
65,동대문구,수도학원,서울특별시 동대문구 보문로 6,", 1층 일부, 5층, 6층 (신설동)",37.5761363837871,127.023530607859,입시.검정 및 보습
66,동대문구,서울용접배관기술학원,서울특별시 동대문구 왕산로 9-1,", 5층 (신설동)",37.5774132,127.0295723,직업기술
67,동대문구,티움미술교습소,서울특별시 동대문구 답십리로69길 55,웰빙프라자1층113호 (장안동),37.5747609,127.0739723,예능(대)
68,동대문구,뮤즈무용학원,서울특별시 동대문구 사가정로 150,4층 (전농동),37.5701008,127.0489781,예능(대)
69,동대문구,레미음악학원,서울특별시 동대문구 약령시로 16,1층 (제기동),37.5828182,127.0351019,예능(대)
70,동대문구,옳음에듀학원,서울특별시 동대문구 천호대로 155,3층 (용두동),37.5620882,127.0611565,입시.검정 및 보습
71,동대문구,필탑학원,서울특별시 동대문구 전농로 51,",2층,3층 (답십리동)",37.5836734,127.0533383,입시.검정 및 보습
72,동대문구,AM뮤직(music)음악학원,서울특별시 동대문구 한천로 264,주공프라자상가2층202호 (휘경동),37.5702311,127.0642937,예능(대)
73,동대문구,리틀쇼팽음악교습소,서울특별시 동대문구 천호대로91길 38,", 2층일부 (장안동)",37.563368,127.0695613,예능(대)
74,동대문구,공간미술교습소,서울특별시 동대문구 제기로 131,", 205호, 206호 (청량리동, 한신아파트)",37.5875129,127.04764207708357,예능(대)
75,동대문구,비움채움아트미술교습소,서울특별시 동대문구 사가정로 80,", 2층 216호 (답십리동)",37.5701008,127.0489781,예능(대)
76,동대문구,대성독서논술리딩게임논술교습소,서울특별시 동대문구 서울시립대로 31,동아아파트 상가 206호 (전농동),37.5760293,127.0471019,입시.검정 및 보습
77,동대문구,꽃들음악교습소,서울특별시 동대문구 한천로33길 26,1층일부 (장안동),37.5775414,127.0668073,예능(대)
78,동대문구,고은소리피아노음악학원,서울특별시 동대문구 사가정로23가길 19,2층 (장안동),37.580593949999994,127.07094239109196,예능(대)
79,동대문구,리드앤톡영어독서학원,서울특별시 동대문구 답십리로69길 55,"웰빙프라자4층,403호 (장안동)",37.5747609,127.0739723,입시.검정 및 보습
80,동대문구,강의하는아이들위너스장안캠퍼스학원,서울특별시 동대문구 장안벚꽃로 107,", 301호일부,305호 (장안동, 장안현대홈타운)",37.577223,127.076452,입시.검정 및 보습
81,동대문구,오예진피아노교습소,서울특별시 동대문구 전농로36나길 4,1층일부 (전농동),37.5850477,127.0533073,예능(대)
82,동대문구,해오름피아노교습소,서울특별시 동대문구 장한로18길 40,4층 (장안동),37.5672493,127.0717396,예능(대)
83,동대문구,꿈을그리는미술교습소,서울특별시 동대문구 사가정로 148,SK@주상가동138동304-1호 (전농동),37.5701008,127.0489781,예능(대)
84,동대문구,리틀엔젤음악교습소,서울특별시 동대문구 망우로10길 43,1층(일부) (휘경동),37.5883167,127.0576767,예능(대)
85,동대문구,멘토수학교습소,서울특별시 동대문구 약령중앙로 55,1층일부 (제기동),37.5820846,127.0372245,입시.검정 및 보습
86,동대문구,한건이엔씨영어학원,서울특별시 동대문구 답십리로 255,", 4층 일부(우측)?5층?6층 일부 (장안동)",37.5765595,127.0465065,입시.검정 및 보습
87,동대문구,CDI에이프릴(April)어학원,서울특별시 동대문구 답십리로69길 55,", 201호~205호?208호 (장안동)",37.5747609,127.0739723,국제화
88,동대문구,플러스수학학원,서울특별시 동대문구 이문로 88-13,", 3층 (이문동)",37.5951782,127.0593706,입시.검정 및 보습
89,동대문구,지해수학교습소,서울특별시 동대문구 경희대로4길 74,", 3층 (회기동)",37.5913675,127.0567283,입시.검정 및 보습
90,동대문구,공간R미술교습소,서울특별시 동대문구 서울시립대로12길 28,", 2층 (전농동)",37.5781315,127.0514229,예능(대)
91,동대문구,라이즈수학학원,서울특별시 동대문구 답십리로 272,", 3층일부 (장안동)",37.5765595,127.0465065,입시.검정 및 보습
92,동대문구,튼튼영어마스터클럽영어교습소,서울특별시 동대문구 망우로 95,휘경롯데아파트 상가동 102호 (휘경동),37.5881081,127.0542659,입시.검정 및 보습
93,동대문구,KBS아트비전미용학원,서울특별시 동대문구 왕산로 225,5층15호.16호 (청량리동),37.5820441,127.0472342,직업기술
94,동대문구,꿈꾸는화가들미술교습소,서울특별시 동대문구 이문로 47,", 2층 201호 일부 (이문동, 자인M TOWER)",37.5951782,127.0593706,예능(대)
95,동대문구,엔젤스(Angels)음악교습소,서울특별시 동대문구 무학로26길 19,2층 (용두동),37.573361,127.0324431,예능(대)
96,동대문구,나래피아노음악교습소,서울특별시 동대문구 이문로42길 5,", 1층 일부 (이문동)",37.6007601,127.0665914,예능(대)
97,동대문구,청송음악교습소,서울특별시 동대문구 답십리로66길 17,2층 (장안동),37.5688153,127.0676829,예능(대)
98,동대문구,소아서예교습소,서울특별시 동대문구 답십리로 66,", 301호 (전농동)",37.5765595,127.0465065,기타(대)
99,동대문구,우미영음악교습소,서울특별시 동대문구 서울시립대로12길 43,", 3층 (전농동 222-6)",37.5781315,127.0514229,예능(대)
100,동대문구,열린음악교습소,서울특별시 동대문구 한천로39길 27,2층(전농동),37.5779649,127.0672604,예능(대)
101,동대문구,상상아이미술창작소미술교습소,서울특별시 동대문구 약령시로 11,2층 (제기동),37.5828182,127.0351019,예능(대)
102,동대문구,샤인미술교습소,서울특별시 동대문구 서울시립대로 31,동아아파트 102동상가110호 (전농동),37.5760293,127.0471019,예능(대)
103,동대문구,예당음악교습소,서울특별시 동대문구 이문로1길 8-5,", 1층 (회기동)",37.5889719,127.0537317,예능(대)
104,동대문구,경산서예교습소,서울특별시 동대문구 망우로 49,", 4층 일부 (휘경동)",37.5894528,127.0588022,기타(대)
105,동대문구,르네미술교습소,서울특별시 동대문구 망우로 95,", 상가동 1층 103호 (휘경동, 휘경동롯데아파트)",37.5881081,127.0542659,예능(대)
106,동대문구,모짜르트피아노교습소,서울특별시 동대문구 망우로16길 11-15,(2층) (휘경동),37.589550849999995,127.0624114138404,예능(대)
107,동대문구,예진서예교습소,서울특별시 동대문구 장한로5길 41,3층일부(우측) (장안동),37.5650384,127.0643419,기타(대)
108,동대문구,이레미술교습소,서울특별시 동대문구 회기로25길 55,2층 (이문동),37.5926088,127.0570019,예능(대)
109,동대문구,예화피아노음악교습소,서울특별시 동대문구 한천로17길 23,", 2층 (답십리동)",37.5697419,127.0632727,예능(대)
110,동대문구,삼성음악교습소,서울특별시 동대문구 전농로 192,전농동삼성아파트 상가204 (전농동),37.5836734,127.0533383,예능(대)
111,동대문구,샛별음악교습소,서울특별시 동대문구 망우로10길 41,", 101호 (휘경동)",37.5883167,127.0576767,예능(대)
112,동대문구,비바체음악교습소,서울특별시 동대문구 외대역동로 36,동양2차아파트 상가1층일부 (휘경동),37.592349,127.06658960712518,예능(대)
113,동대문구,수학의힘동대문학원,서울특별시 동대문구 답십리로 291-1,3층전체 (장안동),37.57253515,127.07263904039448,입시.검정 및 보습
114,동대문구,이지수학교습소,서울특별시 동대문구 회기로 168,2층 (회기동),37.5911716,127.0409409,입시.검정 및 보습
115,동대문구,스프라이팅(Spwriting)이문캠퍼스학원,서울특별시 동대문구 한천로58길 75-19,1층 (이문동),37.5986527,127.06883,입시.검정 및 보습
116,동대문구,탑수학교습소,서울특별시 동대문구 사가정로 145,2층 (전농동),37.5701008,127.0489781,입시.검정 및 보습
117,동대문구,베스트윈학원,서울특별시 동대문구 정릉천동로 158,2층 (제기동),37.5824111,127.0366103,입시.검정 및 보습
118,동대문구,초록초록미술학원,서울특별시 동대문구 답십리로69길 8,", 5층일부 (장안동,장안동 근린생활시설)",37.572703,127.0740001,예능(대)
119,동대문구,동대문올림피아드학원,서울특별시 동대문구 답십리로 269,", 2층, 3층 (장안동, 화성빌딩)",37.5765595,127.0465065,입시.검정 및 보습
120,동대문구,GLEC어학원,서울특별시 동대문구 답십리로 269,", , 4층,6층 (장안동,화성빌딩)",37.5765595,127.0465065,국제화
121,동대문구,예린음악학원,서울특별시 동대문구 답십리로69길 11,3층일부 (장안동),37.5751937,127.0740928,예능(대)
122,동대문구,홍익아이숲미술교습소,서울특별시 동대문구 황물로 41,2층 (전농동),37.5710005,127.0496624,예능(대)
123,동대문구,동대문C&C미술학원,서울특별시 동대문구 한천로 196,2층일부 (장안동),37.5702311,127.0642937,예능(대)
124,동대문구,프라하피아노교습소,서울특별시 동대문구 고산자로30길 70,1층일부 (용두동),37.5756678,127.0409221,예능(대)
125,동대문구,e해법수학교습소,서울특별시 동대문구 서울시립대로 31,동아아파트 102동 207호 (전농동),37.5760293,127.0471019,입시.검정 및 보습
126,동대문구,쥴리어드음악교습소,서울특별시 동대문구 답십리로23나길 17,", 1층일부 (전농동)",37.5791676,127.0552893,예능(대)
127,동대문구,청솔해법영어교습소,서울특별시 동대문구 전농로10길 20,", 201호, 202호 (답십리동,답십리청솔우성아파트상가)",37.5767327,127.0630182,입시.검정 및 보습
128,동대문구,현진학원,서울특별시 동대문구 사가정로 80,", 4층 413~415호 (답십리동)",37.5701008,127.0489781,입시.검정 및 보습
129,동대문구,서울도시디자인학원,서울특별시 동대문구 왕산로 278-1,1필지3층 (전농동),37.5774132,127.0295723,직업기술
130,동대문구,정명(正明)수학교습소,서울특별시 동대문구 이문로54길 46,"E편한세상아파트 상가209,210 (이문동)",37.6050909,127.0625252,입시.검정 및 보습
131,동대문구,윤선생영어숲장안학원,서울특별시 동대문구 장안벚꽃로 107,", 제상가1동 201호 (장안동,장안현대홈타운)",37.577223,127.076452,입시.검정 및 보습
132,동대문구,리더앤리더영어학원,서울특별시 동대문구 답십리로 291-1,원양빌딩2층 (장안동),37.57253515,127.07263904039448,입시.검정 및 보습
133,동대문구,나레스트청량리미용학원,서울특별시 동대문구 홍릉로 28,", 3층 일부 (청량리동, 성일빌딩)",37.5890791,127.042687,직업기술
134,동대문구,행복한미술교습소,서울특별시 동대문구 한천로 250,주공아파트 상가2층205호 (휘경동),37.58321345,127.06860320892619,예능(대)
135,동대문구,꾸미샘논술교습소,서울특별시 동대문구 제기로 129,", 122-303 (청량리동,한신아파트상가)",37.5867304,127.0389802,입시.검정 및 보습
136,동대문구,나리미술교습소,서울특별시 동대문구 답십리로56길 21-1,두산아파트 상가303호 (답십리동),37.5687047,127.0587649,예능(대)
137,동대문구,A플러스영수전문학원,서울특별시 동대문구 한천로46길 56-4,", 401호 (장안동)",37.5811042,127.0713708,입시.검정 및 보습
138,동대문구,탑해법수학교습소,서울특별시 동대문구 답십리로60길 66,", 1층 일부 (답십리동)",37.5679138,127.06204,입시.검정 및 보습
139,동대문구,이곳이수학의메카다매쓰메카학원,서울특별시 동대문구 장한로28가길 45,", 2층 (장안동,희헌빌딩)",37.5763332,127.0728807,종합(대)
140,동대문구,와이즈바둑교습소,서울특별시 동대문구 사가정로 148,SK아파트 주상가311-1호 (전농동),37.5701008,127.0489781,기타(대)
141,동대문구,엄친학원,서울특별시 동대문구 장한로18길 36,4층 (장안동),37.5672493,127.0717396,입시.검정 및 보습
142,동대문구,어썸팩토리장안휘경플레이스독서실,서울특별시 동대문구 사가정로25길 41,", 3층 일부 (장안동)",37.5808337,127.07060727956215,독서실
143,동대문구,비법학원,서울특별시 동대문구 전농로 133,", 3층 (전농동)",37.5836734,127.0533383,입시.검정 및 보습
144,동대문구,동대문정상어학원,서울특별시 동대문구 한천로 193,", 5층 일부 (장안동, 동서울농협 장안동지점)",37.5702311,127.0642937,국제화
145,동대문구,대한논리학원,서울특별시 동대문구 사가정로 136,3층(전농동),37.5701008,127.0489781,입시.검정 및 보습
146,동대문구,예뜰미술교습소,서울특별시 동대문구 장안벚꽃로 167,", 주상가 2층, 202호, 203호 (장안동,래미안장안2차아파트)",37.57299485,127.07495916113669,예능(대)
147,동대문구,EST영어학원,서울특별시 동대문구 신이문로 19-1,2층 (이문동),37.6032489,127.0651265,입시.검정 및 보습
148,동대문구,신화전기학원,서울특별시 동대문구 망우로21길 52,", 2층일부,3층일부 (휘경동)",37.5904116,127.0600273486805,직업기술
149,동대문구,전농GnB영어학원,서울특별시 동대문구 사가정로 148,", 주상가동 404호?405호 (전농동, 전농 SK아파트)",37.5701008,127.0489781,입시.검정 및 보습
150,동대문구,웨이(Way)실용음악학원,서울특별시 동대문구 안암로 68,", 2층 (용두동)",37.5825384,127.0293181,기예(대)
151,동대문구,베리트실용음악학원,서울특별시 동대문구 전농로 37,",  2층 (답십리동)",37.5836734,127.0533383,예능(대)
152,동대문구,뮤즈인실용음악학원,서울특별시 동대문구 망우로 118,3층 (휘경동),37.59105425,127.06631935,예능(대)
153,동대문구,글빛학원,서울특별시 동대문구 사가정로25길 22-4,", 2층 (장안동)",37.5796679,127.0710047,입시.검정 및 보습
154,동대문구,유레카학원,서울특별시 동대문구 장한로32길 13,3층 (장안동),37.5754525,127.0734666,입시.검정 및 보습
155,동대문구,정상수학학원,서울특별시 동대문구 답십리로 311,2층 (장안동),37.5765595,127.0465065,입시.검정 및 보습
156,동대문구,옳음에듀2관학원,서울특별시 동대문구 왕산로 68,", 4층 일부 (용두동)",37.5774132,127.0295723,입시.검정 및 보습
157,동대문구,통원서당학원,서울특별시 동대문구 천호대로 15-3,1층 (신설동),37.5620882,127.0611565,국제화
158,동대문구,베리타스학원,서울특별시 동대문구 한천로46길 70-2,2층 (장안동),37.5811042,127.0713708,입시.검정 및 보습
159,동대문구,이데아학원,서울특별시 동대문구 이문로 69,", 3층 (이문동)",37.5951782,127.0593706,입시.검정 및 보습
160,동대문구,레몬트리미술학원,서울특별시 동대문구 답십리로72길 114,", 2층 (장안동)",37.5688334,127.0729248,예능(대)
161,동대문구,탑퍼스트학원,서울특별시 동대문구 답십리로 133,", 3층 (답십리동)",37.5765595,127.0465065,입시.검정 및 보습
162,동대문구,G21학원,서울특별시 동대문구 고산자로31길 25,", 3층 (용두동)",37.5767178,127.0375069,입시.검정 및 보습
163,동대문구,2관폴리어학원,서울특별시 동대문구 장안벚꽃로1길 7,"힐스테이트상가201,202,203호 (장안동)",37.5758365,127.07624819537963,국제화
164,동대문구,동부음악학원,서울특별시 동대문구 왕산로 272-1,"3,4층 (전농동)",37.5774132,127.0295723,기예(대)
165,동대문구,꿈그림미술교습소,서울특별시 동대문구 정릉천동로 58,롯데캐슬피렌체201호 (용두동),37.5769778,127.0354867,예능(대)
166,동대문구,S.J.Y해법학원,서울특별시 동대문구 한천로17길 21,", 3층,4층 (답십리동)",37.5697419,127.0632727,입시.검정 및 보습
167,동대문구,최강학원,서울특별시 동대문구 장한로34길 28,", 2층 일부 (장안동)",37.5762138,127.0737266,입시.검정 및 보습
168,동대문구,숙명아르떼음악교습소,서울특별시 동대문구 이문로1길 21,", 상가동 2층 203호 (회기동, 청량리신현대아파트)",37.5889719,127.0537317,예능(대)
169,동대문구,유니팝미술학원,서울특별시 동대문구 답십리로69길 7,3층 (장안동),37.5751937,127.0740928,예능(대)
170,동대문구,멘토학원,서울특별시 동대문구 신이문로 37,", 3층 (이문동)",37.6032489,127.0651265,입시.검정 및 보습
171,동대문구,채움수학교습소,서울특별시 동대문구 약령시로 13,", 201호 일부 (제기동, 제기동 다세대주택)",37.5828182,127.0351019,입시.검정 및 보습
172,동대문구,주니아트미술교습소,서울특별시 동대문구 한천로46길 76,2층 (장안동),37.5811042,127.0713708,예능(대)
173,동대문구,월광음악학원,서울특별시 동대문구 신이문로9길 5-2,3층 (이문동),37.6042001,127.0632287,예능(대)
174,동대문구,숙명플러스음악학원,서울특별시 동대문구 장한로32길 27,", 204호?205호?206호?207호 (장안동, 삼성그린아파트)",37.5753189,127.0738272,예능(대)
175,동대문구,애플영어교습소,서울특별시 동대문구 고산자로54길 6,", 2층 (제기동)",37.5887899,127.0397988,입시.검정 및 보습
176,동대문구,오렌지음악교습소,서울특별시 동대문구 고산자로54길 6,", 2층 (제기동)",37.5887899,127.0397988,예능(대)
177,동대문구,뮤직인음악교습소,서울특별시 동대문구 사가정로 190,"전농우성아파트 상가4층5,6호 (전농동)",37.5701008,127.0489781,예능(대)
178,동대문구,김현주음악교습소,서울특별시 동대문구 한천로 300,동일스위트리버상가203호 (휘경동),37.5702311,127.0642937,예능(대)
179,동대문구,아르떼음악학원,서울특별시 동대문구 황물로 42,3층3호 (답십리동),37.5710005,127.0496624,예능(대)
180,동대문구,싸인(Sine)수학교습소,서울특별시 동대문구 약령시로 10-1,", 101호 (제기동, 제기동빌딩)",37.5828182,127.0351019,입시.검정 및 보습
181,동대문구,더플라이학원,서울특별시 동대문구 답십리로72길 18,9층 (장안동),37.5688334,127.0729248,입시.검정 및 보습
182,동대문구,비엘음악학원,서울특별시 동대문구 사가정로25길 58,", 2층?3층 (장안동)",37.5799399,127.0710869,예능(대)
183,동대문구,더피아노교습소,서울특별시 동대문구 무학로 202,라이온스파스텔201호 (제기동),37.571983,127.0305029,예능(대)
184,동대문구,장안드림러닝센터학원,서울특별시 동대문구 장한로18길 54-1,2층 (장안동),37.5672493,127.0717396,입시.검정 및 보습
185,동대문구,양경(良勁)수학교습소,서울특별시 동대문구 천호대로31길 5,2층(일부) (용두동),37.5755633,127.0412744,입시.검정 및 보습
186,동대문구,뮤엠영어동대문학원,서울특별시 동대문구 사가정로20길 9,", 1층 2층 (전농동)",37.577386,127.0664471,입시.검정 및 보습
187,동대문구,차이홍장평초중국어교습소,서울특별시 동대문구 장안벚꽃로 167,", 주상가동 201호, 228호 (장안동, 래미안장안2차아파트)",37.57299485,127.07495916113669,국제화
188,동대문구,동대문창조의아침미술학원,서울특별시 동대문구 한천로 195,", 2,3,4,5,층 (장안동)",37.5702311,127.0642937,예능(대)
189,동대문구,초?중등부관스카이학원,서울특별시 동대문구 망우로 101,", 2층 (휘경동)",37.5881081,127.0542659,입시.검정 및 보습
190,동대문구,세종음악교습소,서울특별시 동대문구 이문로46길 56,", 1층 (이문동)",37.6016922,127.064582,예능(대)
191,동대문구,회기씨엠피실용음악학원,서울특별시 동대문구 망우로 4,4층 (휘경동),37.587868,127.054038,기예(대)
192,동대문구,창작공간다름학원,서울특별시 동대문구 답십리로69길 55,웰빙프라자404호 (장안동),37.5747609,127.0739723,예능(대)
193,동대문구,(주)허브컴퓨터회계아트학원,서울특별시 동대문구 왕산로 81,두산베어스타워3층(일부) (용두동),37.5774132,127.0295723,종합(대)
194,동대문구,박정호학원,서울특별시 동대문구 장한로 170,", 3층우측 (장안동)",37.561392,127.064624,입시.검정 및 보습
195,동대문구,지디비(GDB)실용음악학원,서울특별시 동대문구 답십리로 305,", 3층일부 (장안동)",37.5723385,127.0744437,기예(대)
196,동대문구,오뜨리패션디자인학원,서울특별시 동대문구 왕산로5길 6,", 2층?3층 (신설동)",37.5772715,127.0268791,직업기술
197,동대문구,오르프아카데미학원,서울특별시 동대문구 장한로28길 44,2층(일부) (장안동),37.5727364,127.0744113,예능(대)
198,동대문구,애듀포유퍼펙트학원,서울특별시 동대문구 답십리로 287,", 3층, 4층 (장안동)",37.572687,127.0722412,입시.검정 및 보습
199,동대문구,우리아이수학교습소,서울특별시 동대문구 이문로42길 69-2,", 1층 (이문동)",37.6007601,127.0665914,입시.검정 및 보습
200,동대문구,은음악교습소,서울특별시 동대문구 황물로 39,", 2층 (전농동)",37.5710005,127.0496624,예능(대)
201,동대문구,예람스쿨해법수학교습소,서울특별시 동대문구 사가정로17길 15,", 상가동 302호 (전농동)",37.578479,127.0600945,입시.검정 및 보습
202,동대문구,나정향영어학원,서울특별시 동대문구 장한로32길 27,", 삼성그린@ 201.202.203호 (장안동,삼성그린아파트)",37.5753189,127.0738272,입시.검정 및 보습
203,동대문구,수학하는아이(I)수학전문학원,서울특별시 동대문구 답십리로 302,", 3층 일부 (장안동)",37.5765595,127.0465065,입시.검정 및 보습
204,동대문구,수학하다장안동수학학원,서울특별시 동대문구 장한로 170,", 3층일부 (장안동)",37.561392,127.064624,입시.검정 및 보습
205,동대문구,상상나무미술교습소,서울특별시 동대문구 장안벚꽃로 167,",  주상가동 106호 (장안동,래미안장안2차아파트)",37.57299485,127.07495916113669,예능(대)
206,동대문구,바하음악교습소,서울특별시 동대문구 외대역동로 17,", 3층 (휘경동)",37.591006199999995,127.06753060143836,예능(대)
207,동대문구,이헌수학교습소,서울특별시 동대문구 사가정로 153,", 3층 (전농동)",37.5701008,127.0489781,입시.검정 및 보습
208,동대문구,동화세상에듀코원격평생교육학원,서울특별시 동대문구 왕산로 25,", 12층 일부 (신설동)",37.5774132,127.0295723,종합(대)
209,동대문구,지성과감성수학교습소,서울특별시 동대문구 답십리로69길 11,", 3층일부 (장안동)",37.5751937,127.0740928,입시.검정 및 보습
210,동대문구,이문해법학원,서울특별시 동대문구 신이문로9길 5-2,", 2층 (이문동,명빌딩)",37.6042001,127.0632287,입시.검정 및 보습
211,동대문구,배움틀수학학원,서울특별시 동대문구 사가정로25길 26,", 2층 (장안동)",37.5799399,127.0710869,입시.검정 및 보습
212,동대문구,눈높이스마트러닝센터학원,서울특별시 동대문구 답십리로69길 55,", 106호 107호 (장안동,웰빙프라자)",37.5747609,127.0739723,입시.검정 및 보습
213,동대문구,박주원기타스쿨학원,서울특별시 동대문구 망우로21길 12,",  3층 (휘경동)",37.59057765,127.0626232582554,예능(대)
214,동대문구,앤츠학원,서울특별시 동대문구 전농로 37,",  4층 (답십리동)",37.5836734,127.0533383,입시.검정 및 보습
215,동대문구,주은음악학원,서울특별시 동대문구 사가정로17길 15,", 래미안아름숲상가 303호,304호 (전농동)",37.578479,127.0600945,예능(대)
216,동대문구,예음음악학원,서울특별시 동대문구 경희대로4길 79,",  3층일부 (이문동)",37.5913675,127.0567283,예능(대)
217,동대문구,페디아플러스장안학원,서울특별시 동대문구 장안벚꽃로 107,", 제상가1동 309호 (장안동,장안현대홈타운)",37.577223,127.076452,입시.검정 및 보습
218,동대문구,리드수학학원,서울특별시 동대문구 사가정로 206,",  3층일부 (장안동)",37.5701008,127.0489781,입시.검정 및 보습
219,동대문구,아사히일본어학원,서울특별시 동대문구 천호대로 305,", 4층일부 (답십리동)",37.5620882,127.0611565,국제화
220,동대문구,서인서예교습소,서울특별시 동대문구 장한로22길 44-4,", 1층일부 (장안동)",37.5693946,127.0713113,기타(대)
221,동대문구,대치주연클리닉영어교습소,서울특별시 동대문구 전농로 123,", 2층 (전농동)",37.56888,127.0571,입시.검정 및 보습
222,동대문구,옥스포드영어교습소,서울특별시 동대문구 경희대로4길 79,3층 일부 (이문동),37.5913675,127.0567283,입시.검정 및 보습
223,동대문구,김경훈수학학원,서울특별시 동대문구 장한로28길 26,", 2층 (장안동)",37.572817,127.0747149,입시.검정 및 보습
224,동대문구,윤선생크레시티영어교습소,서울특별시 동대문구 답십리로 76,", 2층 (전농동)",37.5765595,127.0465065,입시.검정 및 보습
225,동대문구,답십리e-해법수학교습소,서울특별시 동대문구 답십리로 95,", 3층 (답십리동)",37.5765595,127.0465065,입시.검정 및 보습
226,동대문구,DJM실용음악학원,서울특별시 동대문구 천호대로91길 83,", 4층 (장안동)",37.563368,127.0695613,예능(대)
227,동대문구,눈높이러닝센터베스트학원,서울특별시 동대문구 전농로 111,", 동호빌딩 4층 (답십리동)",37.5836734,127.0533383,입시.검정 및 보습
228,동대문구,한림원수학교습소,서울특별시 동대문구 제기로 131,", 상가 122동 403호 (청량리동,한신아파트)",37.5875129,127.04764207708357,입시.검정 및 보습
229,동대문구,라온영어교습소,서울특별시 동대문구 답십리로69길 11,", 2층 일부 (장안동)",37.5751937,127.0740928,입시.검정 및 보습
230,동대문구,원어민중국어교습소,서울특별시 동대문구 사가정로17길 15,", 래미안아름숲상가 2층 202호 (전농동)",37.578479,127.0600945,국제화
231,동대문구,스마트해법전농우성수학교습소,서울특별시 동대문구 사가정로 190,", 308호 일부 (전농동, 전농우성아파트상가)",37.5701008,127.0489781,입시.검정 및 보습
232,동대문구,김나음스튜디오미술교습소,서울특별시 동대문구 회기로 157,", 3층 (회기동)",37.5911716,127.0409409,예능(대)
233,동대문구,미술로생각하기동대문전농학원,서울특별시 동대문구 사가정로 148,", 주상가동 302호 (전농동, 전농 SK아파트)",37.5701008,127.0489781,예능(대)
234,동대문구,한국청소직업전문학원,서울특별시 동대문구 황물로 42,", 301호, 302호 (답십리동)",37.5710005,127.0496624,직업기술
235,동대문구,혁신독서실,서울특별시 동대문구 답십리로48길 82,", 1층일부 2층 (답십리동)",37.5699881,127.0577339,독서실
236,동대문구,뮤엠영어교습소,서울특별시 동대문구 약령시로 13-1,", 1층 (제기동)",37.5828182,127.0351019,입시.검정 및 보습
237,동대문구,파스칼수학교습소,서울특별시 동대문구 정릉천동로 58,", 202호 (용두동, 롯데캐슬피렌체)",37.5769778,127.0354867,입시.검정 및 보습
238,동대문구,달란트음악학원,서울특별시 동대문구 전농로3길 12,", 2층 (답십리동)",37.5714685,127.0569387,예능(대)
239,동대문구,아발론랭콘잉글리쉬동대문전농어학원,서울특별시 동대문구 답십리로 77,", 3층 일부 (전농동)",37.5765595,127.0465065,국제화
240,동대문구,한수위P?K학원,서울특별시 동대문구 장한로 186,", 3층 일부 (장안동)",37.561392,127.064624,입시.검정 및 보습
241,동대문구,세우방송예술학원,서울특별시 동대문구 천호대로 433,", 9층 (장안동)",37.5620882,127.0611565,직업기술
242,동대문구,대치에스학원,서울특별시 동대문구 망우로 123,", 6층일부 (휘경동)",37.5917182,127.0666818244367,입시.검정 및 보습
243,동대문구,동그라미술교습소,서울특별시 동대문구 사가정로17길 15,", 래미안아름숲상가 204호 (전농동)",37.578479,127.0600945,예능(대)
244,동대문구,장안탑학원,서울특별시 동대문구 답십리로69길 8,", 4층일부 (장안동,장안동 근린생활시설)",37.572703,127.0740001,입시.검정 및 보습
245,동대문구,대치K영어수학전문학원,서울특별시 동대문구 장한로18길 57,", 2층 (장안동,축제빌딩)",37.5672493,127.0717396,입시.검정 및 보습
246,동대문구,김동수학원,서울특별시 동대문구 이문로 61,", 2층 (이문동)",37.5951782,127.0593706,입시.검정 및 보습
247,동대문구,이화음악학원,서울특별시 동대문구 고산자로 534,", 상가동 307호 (제기동,한신아파트)",37.5747533,127.0379868,예능(대)
248,동대문구,동대문ECC어학원,서울특별시 동대문구 사가정로 80,", 2층 203~210호 (답십리동)",37.5701008,127.0489781,국제화
249,동대문구,신수학교습소,서울특별시 동대문구 사가정로17길 15,", 103호 (전농동, 래미안아름숲상가)",37.578479,127.0600945,입시.검정 및 보습
250,동대문구,유니온2미술학원,서울특별시 동대문구 사가정로 122,", 303호?307호 (전농동, 전농동하우스토리)",37.5701008,127.0489781,예능(대)
251,동대문구,더큰수학학원,서울특별시 동대문구 장한로 140,", 302호 (장안동)",37.5728749,127.0720104,입시.검정 및 보습
252,동대문구,한우리독서토론논술교습소,서울특별시 동대문구 장한로28가길 45,", 4층, 403호 (장안동)",37.5763332,127.0728807,입시.검정 및 보습
253,동대문구,쇼팽음악학원,서울특별시 동대문구 전농로23길 8,", 3층 (전농동)",37.5793764,127.0538865,예능(대)
254,동대문구,경희음악학원,서울특별시 동대문구 회기로25길 11,", 2층 (회기동)",37.5926088,127.0570019,예능(대)
255,동대문구,주아트미술교습소,서울특별시 동대문구 사가정로 65,", 전농7구역 단지내상가 2단지 218,219호 (전농동 440-9,래미안크레시티아파트상가)",37.5701008,127.0489781,예능(대)
256,동대문구,모든기타교습소,서울특별시 동대문구 장안벚꽃로 167,", 206호 (장안동 329-3,래미안장안2차아파트)",37.57299485,127.07495916113669,예능(대)
257,동대문구,웅진씽크빅학습센터장안학원,서울특별시 동대문구 장한로32길 13,", 2층 (장안동)",37.5754525,127.0734666,입시.검정 및 보습
258,동대문구,임정미영재음악학원,서울특별시 동대문구 전농로16길 54,", 2층?3층 (전농동)",37.5782527,127.0601069,예능(대)
259,동대문구,더센터학원,서울특별시 동대문구 회기로21길 44,", 3층 (회기동)",37.5925196,127.0532094,기타(대)
260,동대문구,아벨수학교습소,서울특별시 동대문구 한천로 250,", 주상가동201호 (휘경동 57-3, 주공아파트)",37.58321345,127.06860320892619,입시.검정 및 보습
261,동대문구,EiE장안캠퍼스학원,서울특별시 동대문구 답십리로 293,", 3층일부 (장안동)",37.5765595,127.0465065,입시.검정 및 보습
262,동대문구,스마트스터디빨간펜수학의달인학원,서울특별시 동대문구 답십리로72길 96,", 2층 (장안동)",37.5688334,127.0729248,입시.검정 및 보습
263,동대문구,블랙홀학원,서울특별시 동대문구 홍릉로 23,", 4층 (청량리동)",37.5890791,127.042687,기예(대)
264,동대문구,윤선생영어교실동답영어교습소,서울특별시 동대문구 답십리로60길 78,", 2층 (답십리동)",37.5679138,127.06204,입시.검정 및 보습
265,동대문구,다성수학교습소,서울특별시 동대문구 사가정로 136,", 3층 일부 (전농동 40)",37.5701008,127.0489781,입시.검정 및 보습
266,동대문구,더한수학교습소,서울특별시 동대문구 장안벚꽃로 107,", 제1상가동 304호 (장안동, 장안현대홈타운)",37.577223,127.076452,입시.검정 및 보습
267,동대문구,연세A+학원,서울특별시 동대문구 제기로 130,", 3층 (청량리동)",37.5864433,127.04749350131345,입시.검정 및 보습
268,동대문구,엠클래스수학교습소,서울특별시 동대문구 전농로3가길 2,", 1층 일부 (답십리동 270-8)",37.5702055,127.0566639,입시.검정 및 보습
269,동대문구,윤선생우리집앞영어교실배봉카이로스영어교습소,서울특별시 동대문구 한천로39길 17,", 2층 일부 (전농동)",37.5779649,127.0672604,입시.검정 및 보습
270,동대문구,쌍용한우리독서논술교습소,서울특별시 동대문구 신이문로 39,", 3층일부 (이문동)",37.6032489,127.0651265,입시.검정 및 보습
271,동대문구,장안이투스수학학원,서울특별시 동대문구 답십리로69길 45,", 2층 (장안동)",37.57436585,127.07388485000001,입시.검정 및 보습
272,동대문구,THN최상위영수학원,서울특별시 동대문구 전농로 111,", 3층 (답십리동)",37.5836734,127.0533383,입시.검정 및 보습
273,동대문구,메쏘드수학학원,서울특별시 동대문구 한천로 242,", 2층일부 (전농동)",37.582535,127.0686309,입시.검정 및 보습
274,동대문구,포레스트뮤직음악학원,서울특별시 동대문구 장한로28길 48,", 3층 일부 (장안동)",37.572664950000004,127.07461485,예능(대)
275,동대문구,탑클래스학원,서울특별시 동대문구 전농로 68-3,", 2층 (답십리동)",37.5836734,127.0533383,입시.검정 및 보습
276,동대문구,B&K월드댄스스포츠학원,서울특별시 동대문구 천호대로 427-4,", 3층일부 (장안동)",37.5620882,127.0611565,기예(대)
277,동대문구,예일집중관학원,서울특별시 동대문구 한천로26길 23,", 2층 (장안동)",37.5711217,127.0662293,입시.검정 및 보습
278,동대문구,에듀플렉스에듀코치개별지도전농학원,서울특별시 동대문구 전농로 111,", 2층 일부 (답십리동)",37.5836734,127.0533383,입시.검정 및 보습
279,동대문구,동대문색소폰음악학원,서울특별시 동대문구 전농로 99,", 2층 (답십리동)",37.5836734,127.0533383,기예(대)
280,동대문구,신마술피리음악교습소,서울특별시 동대문구 사가정로2길 60,", 2층 (답십리동 322-13)",37.5705647,127.0517949,예능(대)
281,동대문구,언어의미래중고등국어전문학원,서울특별시 동대문구 장한로28길 14,", 3층 (장안동)",37.572841749999995,127.07270085921036,입시.검정 및 보습
282,동대문구,스카이에듀논술교습소,서울특별시 동대문구 한천로58길 107,", 104호 (이문동, 현대아파트)",37.5986527,127.06883,입시.검정 및 보습
283,동대문구,포텐독서실,서울특별시 동대문구 답십리로60길 134,", 상가동 204~209호 (답십리동, 동아아파트)",37.5679138,127.06204,독서실
284,동대문구,명진보습학원,서울특별시 동대문구 답십리로23나길 17,", 2층 (전농동)",37.5791676,127.0552893,입시.검정 및 보습
285,동대문구,타츠원스시아카데미학원,서울특별시 동대문구 왕산로 43,", 3층 (용두동)",37.5774132,127.0295723,직업기술
286,동대문구,생각하는수학스터디뱅크수학교습소,서울특별시 동대문구 망우로10길 50,", 1층 101호 (휘경동)",37.5883167,127.0576767,입시.검정 및 보습
287,동대문구,버닝댄스학원,서울특별시 동대문구 이문로 92,", 3층 (이문동)",37.5951782,127.0593706,기예(대)
288,동대문구,경희프라임음악교습소,서울특별시 동대문구 장한로14길 81,", 상가동 204호 (장안동, 래미안 장안아파트)",37.5655401,127.0708467,예능(대)
289,동대문구,탑브레인학원,서울특별시 동대문구 장안벚꽃로 107,", 제상가1동 2층 203호?3층 313호 (장안동, 장안현대홈타운)",37.577223,127.076452,입시.검정 및 보습
290,동대문구,JK탄탄영어교습소,서울특별시 동대문구 장안벚꽃로 167,", 213호 (장안동, 래미안장안2차아파트)",37.57299485,127.07495916113669,입시.검정 및 보습
291,동대문구,유니온3미술학원,서울특별시 동대문구 사가정로 207,", 201호, 202호, 207호 (장안동, 삼협메디스빌딩)",37.5701008,127.0489781,예능(대)
292,동대문구,리딩버디영어교습소,서울특별시 동대문구 한천로 250,", 상가동 203호 (휘경동, 주공아파트)",37.58321345,127.06860320892619,국제화
293,동대문구,꿈을그리는정원미술교습소,서울특별시 동대문구 답십리로23길 58,", 1층 일부 (전농동)",37.5774527,127.0506786,예능(대)
294,동대문구,예그린미술교습소,서울특별시 동대문구 답십리로59길 33,", 상가동 301호 (답십리동, 우성그린아파트)",37.5739535,127.0665308,예능(대)
295,동대문구,큰나무공부방수학교습소,서울특별시 동대문구 전농로23길 19,", 1층 일부 (전농동)",37.5793764,127.0538865,입시.검정 및 보습
296,동대문구,피카딜리M미술학원,서울특별시 동대문구 한천로58길 47,", 상가동 302호 (이문동, 쌍용아파트)",37.5986527,127.06883,예능(대)
297,동대문구,동대문플래뮤미술학원,서울특별시 동대문구 사가정로 51,", 3층 (전농동)",37.5701008,127.0489781,예능(대)
298,동대문구,길학준스포츠댄스학원,서울특별시 동대문구 왕산로 209,", 3층 일부 (청량리동)",37.5809155,127.045873,기예(대)
299,동대문구,더쌤영어수학2관전문학원,서울특별시 동대문구 장한로28길 50,", 2층 일부 (장안동)",37.5726621,127.0747791,입시.검정 및 보습
300,동대문구,차수학잉글리시아이학원,서울특별시 동대문구 사가정로 111-2,", 3층 일부 (전농동)",37.5701008,127.0489781,입시.검정 및 보습
301,동대문구,영어하다장안동영어학원,서울특별시 동대문구 장한로28가길 45,", 3층 일부?5층 일부 (장안동, 희헌빌딩)",37.5763332,127.0728807,입시.검정 및 보습
302,동대문구,토론하는아이들마스터클럽수학의정곡학원,서울특별시 동대문구 천호대로16길 20,", 3층 (용두동)",37.5723504,127.0315105,입시.검정 및 보습
303,동대문구,해법현대아카데미학원,서울특별시 동대문구 휘경로 43,", 2층 (휘경동)",37.5962774,127.0613924,입시.검정 및 보습
304,동대문구,새롬수학교습소,서울특별시 동대문구 답십리로60길 78,", 3층 (답십리동)",37.5679138,127.06204,입시.검정 및 보습
305,동대문구,K수학학원,서울특별시 동대문구 사가정로 80,", 4층 412호 (답십리동, 답십리뉴타운카운티에비뉴)",37.5701008,127.0489781,입시.검정 및 보습
306,동대문구,신쌤영어교습소,서울특별시 동대문구 장한로34길 18,", 1층 (장안동)",37.5770064,127.0732738,입시.검정 및 보습
307,동대문구,윤선생우리집앞영어교실전곡영어교습소,서울특별시 동대문구 전농로23길 8,", 4층 (전농동)",37.5793764,127.0538865,입시.검정 및 보습
308,동대문구,윤선생우리집앞영어교실전동영어교습소,서울특별시 동대문구 전농로16길 44,", 1층일부 (전농동)",37.5782368,127.0597035,입시.검정 및 보습
309,동대문구,토즈스터디센터전농뉴타운독서실,서울특별시 동대문구 사가정로 109,", 3층일부 (전농동)",37.5701008,127.0489781,독서실
310,동대문구,리딩에비뉴어학원,서울특별시 동대문구 답십리로 303,", 3층 일부 (장안동)",37.572441,127.0739516,국제화
311,동대문구,윤선생우리집앞영어교실제기홍파영어교습소,서울특별시 동대문구 고산자로54길 14,", 1층일부 (제기동)",37.5887899,127.0397988,입시.검정 및 보습
312,동대문구,포레스트아트미술교습소,서울특별시 동대문구 사가정로17길 15,", 102호 (전농동)",37.578479,127.0600945,예능(대)
313,동대문구,라엘음악교습소,서울특별시 동대문구 한천로58길 139,", 상가동 102호 (이문동)",37.5986527,127.06883,예능(대)
314,동대문구,연세음악학원,서울특별시 동대문구 답십리로72길 98,", 2층 (장안동)",37.5688334,127.0729248,예능(대)
315,동대문구,토즈스터디센터장안독서실,서울특별시 동대문구 답십리로 315,", 2층일부 (장안동)",37.5765595,127.0465065,독서실
316,동대문구,토론하는아이들국어바이러스국어교습소,서울특별시 동대문구 장안벚꽃로 167,", 주상가동 217호 (장안동, 래미안장안2차아파트)",37.57299485,127.07495916113669,입시.검정 및 보습
317,동대문구,삼성영어해법수학이문학원,서울특별시 동대문구 신이문로 39,", 2층, 3층일부 (이문동)",37.6032489,127.0651265,입시.검정 및 보습
318,동대문구,청량리이용학원,서울특별시 동대문구 고산자로 441,", 3층 (제기동)",37.5747533,127.0379868,직업기술
319,동대문구,수학의눈학원,서울특별시 동대문구 사가정로 148,", 상가동 401호,402호 (전농동, 전농 SK아파트)",37.5701008,127.0489781,입시.검정 및 보습
320,동대문구,엘빈커피바리스타학원,서울특별시 동대문구 답십리로 304,", 3층2호 (장안동)",37.5765595,127.0465065,직업기술
321,동대문구,영재주산교습소,서울특별시 동대문구 사가정로 148,", 138동(주상가동) 406호 (전농동, 전농SK아파트)",37.5701008,127.0489781,기타(대)
322,동대문구,한댄스스포츠(Han Dance Sports)학원,서울특별시 동대문구 한천로40길 11,", 3층 (장안동)",37.5775019,127.0687584,기예(대)
323,동대문구,루트수학교습소,서울특별시 동대문구 약령시로 25,", 상가동 202호,203호 (제기동, 안암골 벽산아파트)",37.5828182,127.0351019,입시.검정 및 보습
324,동대문구,강수학교습소,서울특별시 동대문구 망우로21길 4,", 4층일부(왼쪽) (휘경동)",37.5906462,127.06305080861664,입시.검정 및 보습
325,동대문구,동대문장안소마학원,서울특별시 동대문구 답십리로 264,", 4층 403호 (장안동)",37.5765595,127.0465065,입시.검정 및 보습
326,동대문구,우리집앞영어제기종암초영어교습소,서울특별시 동대문구 약령시로 16,", 2층일부 (제기동)",37.5828182,127.0351019,입시.검정 및 보습
327,동대문구,테일러아카데미학원,서울특별시 동대문구 하정로5길 19,", 502호 (신설동,미정빌딩)",37.5760743,127.0263533,직업기술
328,동대문구,토즈스터디센터이문독서실,서울특별시 동대문구 이문로 73,", 3층일부 (이문동)",37.5951782,127.0593706,독서실
329,동대문구,라이시움(Lyceum)학원,서울특별시 동대문구 사가정로 109,", 2층우측 (전농동)",37.5701008,127.0489781,입시.검정 및 보습
330,동대문구,맨투맨학원,서울특별시 동대문구 장한로26길 42,", 3층 (장안동)",37.571531,127.073673,입시.검정 및 보습
331,동대문구,댄싱퀸(Dancing Queen)댄스스포츠학원,서울특별시 동대문구 왕산로 240,", 4층 (전농동)",37.5825861,127.04876445,기예(대)
332,동대문구,습관수학교습소,서울특별시 동대문구 장한로28길 8,", 3층 (장안동)",37.5728974,127.0724042,입시.검정 및 보습
333,동대문구,와이에스영어교습소,서울특별시 동대문구 이문로 38,", 402호 (휘경동)",37.5951782,127.0593706,입시.검정 및 보습
334,동대문구,차수학학원,서울특별시 동대문구 답십리로69길 11,", 2층일부 (장안동)",37.5751937,127.0740928,입시.검정 및 보습
335,동대문구,M실용음악학원,서울특별시 동대문구 한천로 189,", 3층 (장안동)",37.5702311,127.0642937,예능(대)
336,동대문구,해냄(HENEM)수학학원,서울특별시 동대문구 한천로 90,", 2층 (장안동)",37.5702311,127.0642937,입시.검정 및 보습
337,동대문구,매그닛영어(Magnet English)학원,서울특별시 동대문구 답십리로 291-3,", 2층 (장안동)",37.57272795,127.07260931274922,입시.검정 및 보습
338,동대문구,쉬운수학교습소,서울특별시 동대문구 약령시로 10-1,", 205호, 206호(우측) (제기동)",37.5828182,127.0351019,입시.검정 및 보습
339,동대문구,주노영어학원,서울특별시 동대문구 답십리로69길 8,", 2층 (장안동, 장안동 근린생활시설)",37.572703,127.0740001,입시.검정 및 보습
340,동대문구,동대문캠퍼스닥스어학원,서울특별시 동대문구 전농로 73,", 2층,3층 (답십리동)",37.5836734,127.0533383,국제화
341,동대문구,연세α수학교습소,서울특별시 동대문구 사가정로 31-1,", 2층 202호 (답십리동)",37.5701008,127.0489781,입시.검정 및 보습
342,동대문구,파고다차이랑회기캠퍼스학원,서울특별시 동대문구 이문로 29,", 4층 402호 (회기동)",37.5951782,127.0593706,입시.검정 및 보습
343,동대문구,삼성영어안평로즈캠퍼스학원,서울특별시 동대문구 장한로14길 81,", 상가동 201호,202호 (장안동, 래미안 장안아파트)",37.5655401,127.0708467,입시.검정 및 보습
344,동대문구,하루수학과학학원,서울특별시 동대문구 전농로3길 12,", 2층 (답십리동)",37.5714685,127.0569387,입시.검정 및 보습
345,동대문구,한우리독서토론논술답십리래미안논술교습소,서울특별시 동대문구 전농로3길 98,", 1층일부 (답십리동)",37.5714685,127.0569387,입시.검정 및 보습
346,동대문구,동대문폴리(POLY)어학원,서울특별시 동대문구 장안벚꽃로1길 7,", 상가동 301호,302호,303호 (장안동, 장안 힐스테이트)",37.5758365,127.07624819537963,국제화
347,동대문구,강샘's수학이야기수학교습소,서울특별시 동대문구 장한로14길 81,", 상가동 302호일부 (장안동, 래미안 장안아파트)",37.5655401,127.0708467,입시.검정 및 보습
348,동대문구,압구정M수학전문학원,서울특별시 동대문구 답십리로 77,", 2층 205호 (전농동)",37.5765595,127.0465065,입시.검정 및 보습
349,동대문구,현대자전거학원,서울특별시 동대문구 난계로28길 8,", 7층 701호 (신설동, 남양빌딩)",37.5721391,127.0271785,직업기술
350,동대문구,세기(Music Academy)음악학원,서울특별시 동대문구 답십리로 140,", 501호 (답십리동, 세기프라자)",37.5765595,127.0465065,예능(대)
351,동대문구,손형주영어전문학원,서울특별시 동대문구 한천로 244-5,", 2층 (휘경동)",37.582612100000006,127.0688327,입시.검정 및 보습
352,동대문구,리드(lead)영어교습소,서울특별시 동대문구 사가정로 65,", 상가동 201호 (전농동, 래미안크레시티아파트)",37.5701008,127.0489781,입시.검정 및 보습
353,동대문구,EJ이화발레아카데미학원,서울특별시 동대문구 전농로 58-1,", 3층 (답십리동, 서울빌딩)",37.5836734,127.0533383,예능(대)
354,동대문구,수학의달인수학교습소,서울특별시 동대문구 사가정로 148,", 스포츠센터동141동 207호 (전농동, 전농 SK아파트)",37.5701008,127.0489781,입시.검정 및 보습
355,동대문구,하성애무용학원,서울특별시 동대문구 서울시립대로 31,", 상가동 212호 (전농동, 동아아파트)",37.5760293,127.0471019,예능(대)
356,동대문구,제기와와학습코칭학원,서울특별시 동대문구 왕산로 71,", 3층 (용두동, 바인르미에르)",37.5774132,127.0295723,입시.검정 및 보습
357,동대문구,아카데미라운지답십리독서실,서울특별시 동대문구 전농로 58-1,", 5층일부, 6층 (답십리동)",37.5836734,127.0533383,독서실
358,동대문구,미래N학원,서울특별시 동대문구 천호대로77길 89,", 3층 (장안동)",37.5645133,127.0623478,입시.검정 및 보습
359,동대문구,블루레더독서실,서울특별시 동대문구 망우로 123,", 601호 (휘경동)",37.5917182,127.0666818244367,독서실
360,동대문구,수학의달인배봉점수학교습소,서울특별시 동대문구 사가정로 190,", 상가2층 14호?15호?16호 (전농동, 전농우성아파트)",37.5701008,127.0489781,입시.검정 및 보습
361,동대문구,그리다미술교습소,서울특별시 동대문구 장한로32길 19,", 105동 302호 (장안동, 삼성리치캐슬)",37.575492800000006,127.07330954769668,예능(대)
362,동대문구,드릴스터디학원,서울특별시 동대문구 한천로 264,", 4층 402호 (휘경동)",37.5702311,127.0642937,입시.검정 및 보습
363,동대문구,니트아카데미손뜨개학원,서울특별시 동대문구 왕산로 224,", 3층 (전농동)",37.5816297,127.0475305,직업기술
364,동대문구,더올림학원,서울특별시 동대문구 사가정로 130,", 3층 (전농동)",37.5701008,127.0489781,입시.검정 및 보습
365,동대문구,청량대성제넥스학원,서울특별시 동대문구 제기로 131,", 상가122동 501호 502호 506호 (청량리동, 한신아파트)",37.5875129,127.04764207708357,입시.검정 및 보습
366,동대문구,청량대성학원,서울특별시 동대문구 제기로 131,", 상가 122동 103호,104호,203호,204호,205호,206호 (청량리동, 한신아파트)",37.5875129,127.04764207708357,입시.검정 및 보습
367,동대문구,캔(CAN)수학전문학원,서울특별시 동대문구 한천로58길 47,", 상가동 301호, 301-1호 (이문동, 쌍용아파트)",37.5986527,127.06883,입시.검정 및 보습
368,동대문구,토브뮤직(TOVMUSIC)음악교습소,서울특별시 동대문구 이문로 64-4,", 2층 (이문동)",37.5951782,127.0593706,예능(대)
369,동대문구,숙명창의인재교육학원,서울특별시 동대문구 한천로58길 47,", 상가동 403호 (이문동, 쌍용아파트)",37.5986527,127.06883,입시.검정 및 보습
370,동대문구,플레이더기타(Play the Guitar)실용음악교습소,서울특별시 동대문구 한천로 300,", 상가동 102호 (휘경동, 동일스위트리버)",37.5702311,127.0642937,예능(대)
371,동대문구,리드인독서테라피논술교습소,서울특별시 동대문구 전농로 97-1,", 2층 (답십리동)",37.5836734,127.0533383,입시.검정 및 보습
372,동대문구,강북멘토스학원,서울특별시 동대문구 왕산로 21,", 1201호 ?1202호 (신설동)",37.5774132,127.0295723,입시.검정 및 보습
373,동대문구,리딩클럽영어학원,서울특별시 동대문구 사가정로 148,", 주상가동 306호 (전농동, 전농 SK아파트)",37.5701008,127.0489781,입시.검정 및 보습
374,동대문구,라미음악학원,서울특별시 동대문구 이문로12길 12,", 1층? 2층 일부 (이문동)",37.5928565,127.058599,예능(대)
375,동대문구,점프셈장안점수학교습소,서울특별시 동대문구 답십리로 291-3,", 4층 (장안동)",37.57272795,127.07260931274922,입시.검정 및 보습
376,동대문구,위너스영어교습소,서울특별시 동대문구 장안벚꽃로 167,", 주상가동 2층 224호 (장안동, 래미안장안2차아파트)",37.57299485,127.07495916113669,입시.검정 및 보습
377,동대문구,연세뮤엠영어교습소,서울특별시 동대문구 경희대로4길 79-1,", 1층 일부 (이문동)",37.5913675,127.0567283,입시.검정 및 보습
378,동대문구,개념의힘학원,서울특별시 동대문구 장한로36길 32,", 201호?202호  (장안동)",37.5773724,127.0741237,입시.검정 및 보습
379,동대문구,에쎈음악학원,서울특별시 동대문구 이문로 88-13,", 2층 (이문동)",37.5951782,127.0593706,예능(대)
380,동대문구,예일Ⅱ어학원,서울특별시 동대문구 한천로 127,", 2,3층일부 (답십리동)",37.5995567,127.0675418,국제화
381,동대문구,꿈비서당한문교습소,서울특별시 동대문구 장한로14길 81,", 상가동 111호 (장안동, 래미안 장안아파트)",37.5655401,127.0708467,입시.검정 및 보습
382,동대문구,박은주음악학원,서울특별시 동대문구 사가정로 65,", 상가동 208호,209호,210호,211호 (전농동, 래미안크레시티아파트)",37.5701008,127.0489781,예능(대)
383,동대문구,더원(The One)영어학원,서울특별시 동대문구 사가정로 207,", 402호 (장안동, 삼협메디스빌딩)",37.5701008,127.0489781,입시.검정 및 보습
384,동대문구,매쓰폴리아수학전문학원,서울특별시 동대문구 사가정로 147,", 2층 (전농동)",37.5701008,127.0489781,입시.검정 및 보습
385,동대문구,그리고미술교습소,서울특별시 동대문구 회기로12길 14,", 1층 (회기동)",37.5911019,127.0507286,예능(대)
386,동대문구,김정윤영어학원,서울특별시 동대문구 이문로 75,", 2층 (이문동)",37.5951782,127.0593706,입시.검정 및 보습
387,동대문구,경희엔젤음악교습소,서울특별시 동대문구 회기로25길 55,", 1층 (이문동)",37.5926088,127.0570019,예능(대)
388,동대문구,서강엘프라임영어교습소,서울특별시 동대문구 사가정로 65,", 201동 상가 203호 (전농동, 래미안 크레시티)",37.5701008,127.0489781,입시.검정 및 보습
389,동대문구,해바라기화실미술학원,서울특별시 동대문구 답십리로72길 92,", 2층 (장안동)",37.5688334,127.0729248,예능(대)
390,동대문구,그레이스댄스아카데미학원,서울특별시 동대문구 고미술로 12,", 2층 (답십리동, 미래빌딩)",37.5671655,127.0532996,기예(대)
391,동대문구,토즈스터디센터답십리역독서실,서울특별시 동대문구 전농로 24,", 4층 일부 (답십리동, 계림빌딩)",37.57031635,127.05675082260912,독서실
392,동대문구,채움영어교습소,서울특별시 동대문구 약령시로 13,", 201호 일부 (제기동, 제기동 다세대주택)",37.5828182,127.0351019,입시.검정 및 보습
393,동대문구,FTK잉글리쉬어학원,서울특별시 동대문구 전농로 58-1,", 2층?4층 (답십리동, 서울빌딩)",37.5836734,127.0533383,국제화
394,동대문구,수학의힘동대문캠퍼스학원,서울특별시 동대문구 답십리로 140,", 206호, 207호 (답십리동, 세기프라자)",37.5765595,127.0465065,입시.검정 및 보습
395,동대문구,청계드로잉미술교습소,서울특별시 동대문구 천호대로55길 11,", 상가2층 208호 (답십리동, 힐스테이트청계)",37.5708504,127.0477184,예능(대)
396,동대문구,청계이화피아노음악교습소,서울특별시 동대문구 천호대로55길 11,", 상가2층 204호 (답십리동, 힐스테이트 청계)",37.5708504,127.0477184,예능(대)
397,동대문구,솔다영어교습소,서울특별시 동대문구 답십리로 140,", 209호 (답십리동, 세기프라자)",37.5765595,127.0465065,국제화
398,동대문구,피카소미술교습소,서울특별시 동대문구 답십리로69길 49,", 2층 (장안동)",37.5744797,127.07389985,예능(대)
399,동대문구,피카딜리미술교습소,서울특별시 동대문구 천호대로55길 11,", 상가2층 202호 (답십리동, 힐스테이트청계아파트)",37.5708504,127.0477184,예능(대)
400,동대문구,교원더퍼스트캠퍼스제기직영학원,서울특별시 동대문구 약령시로 18,", 2층 (제기동, 정주빌딩)",37.5828182,127.0351019,입시.검정 및 보습
401,동대문구,가온국어논술학원,서울특별시 동대문구 장한로 140,", 2층 1호 (장안동)",37.5728749,127.0720104,입시.검정 및 보습
402,동대문구,잉글리쉬무무제기제1학습관영어교습소,서울특별시 동대문구 고산자로 512,", 2층 일부 (제기동)",37.5747533,127.0379868,입시.검정 및 보습
403,동대문구,SJ스펀지학원,서울특별시 동대문구 천호대로91길 83,", 2층 일부 (장안동)",37.563368,127.0695613,입시.검정 및 보습
404,동대문구,라온수학학원,서울특별시 동대문구 사가정로 202,", 2층 (전농동)",37.5701008,127.0489781,입시.검정 및 보습
405,동대문구,엘수학교습소,서울특별시 동대문구 신이문로 23,", 2층 (이문동)",37.6032489,127.0651265,입시.검정 및 보습
406,동대문구,수학의달인청계힐스테이트점수학교습소,서울특별시 동대문구 천호대로55길 11,", 상가2층 205호 (답십리동, 힐스테이트청계)",37.5708504,127.0477184,입시.검정 및 보습
407,동대문구,아이스토리미술교습소,서울특별시 동대문구 이문로16길 18,", 상가동 2층 202호?204호 (이문동, 래미안이문2차아파트)",37.5942119,127.0602229,예능(대)
408,동대문구,매쓰멘토스학원,서울특별시 동대문구 답십리로 255,", 4층 일부 (장안동)",37.5765595,127.0465065,입시.검정 및 보습
409,동대문구,탑스터디수학교습소,서울특별시 동대문구 망우로16길 31-7,", 1층 (휘경동)",37.5893236,127.0613384,입시.검정 및 보습
410,동대문구,킴앤쵸이영어전문학원,서울특별시 동대문구 천호대로13길 53,", 2층 (용두동)",37.5774838,127.0298009,입시.검정 및 보습
411,동대문구,장안독서논술교습소,서울특별시 동대문구 장한로32길 17,", 201호 일부(1호) (장안동, 현진빌딩)",37.5753465,127.0730834,입시.검정 및 보습
412,동대문구,카이노스수학교습소,서울특별시 동대문구 이문로 38,", 4층 401호 일부 (휘경동, 민족통일빌딩)",37.5951782,127.0593706,입시.검정 및 보습
413,동대문구,스마트수학학원,서울특별시 동대문구 한천로 264,", 3층 301호 (휘경동)",37.5702311,127.0642937,입시.검정 및 보습
414,동대문구,꿈터영어교습소,서울특별시 동대문구 휘경로2가길 21,", 4층 일부(좌측) (이문동)",37.5952985,127.0620408,입시.검정 및 보습
415,동대문구,아띠미술공방미술교습소,서울특별시 동대문구 한천로11길 45,", 3층 일부 (답십리동)",37.5671421,127.0588169,예능(대)
416,동대문구,리딩스쿨(Reading School)영어교습소,서울특별시 동대문구 전농로11길 79,", 2층 (답십리동)",37.5757843,127.0573185,국제화
417,동대문구,한은정국어전문학원,서울특별시 동대문구 답십리로 264,", 4층 일부 (장안동)",37.5765595,127.0465065,입시.검정 및 보습
418,동대문구,엠베스트SE리더스영어학원,서울특별시 동대문구 전농로10길 20,", 상가1동 301호?302호 일부 (답십리동, 답십리청솔우성아파트)",37.5767327,127.0630182,입시.검정 및 보습
419,동대문구,훈수학학원,서울특별시 동대문구 사가정로25길 28-1,", 3층 (장안동)",37.5799399,127.0710869,입시.검정 및 보습
420,동대문구,씨앤씨올인원캠퍼스학원,서울특별시 동대문구 장한로28길 28,", 2층 (장안동)",37.572817,127.0747149,입시.검정 및 보습
421,동대문구,SBS아카데미뷰티스쿨(동대문2캠퍼스)학원,서울특별시 동대문구 왕산로 20,", 4층 일부 (신설동)",37.5774132,127.0295723,직업기술
422,동대문구,유니크사진학원,서울특별시 동대문구 한천로 72,", 5층 (장안동, 민지빌딩)",37.5995567,127.0675418,직업기술
423,동대문구,삼성영어답십리영어교습소,서울특별시 동대문구 답십리로 140,", 2층 205호 (답십리동, 세기프라자)",37.5765595,127.0465065,입시.검정 및 보습
424,동대문구,풀빛배움터수학학원,서울특별시 동대문구 천장산로 32-1,", 1층 일부?2층 (이문동)",37.5981272,127.0595726,입시.검정 및 보습
425,동대문구,자몽영어교습소,서울특별시 동대문구 약령시로 10-1,", 1층 일부 (제기동, 제기동빌딩)",37.5828182,127.0351019,입시.검정 및 보습
426,동대문구,칼(Karl)수학학원,서울특별시 동대문구 답십리로 291-4,", 2층 (장안동)",37.5765595,127.0465065,입시.검정 및 보습
427,동대문구,미술생각미술교습소,서울특별시 동대문구 사가정로2길 72-1,", 2층 (답십리동)",37.5705647,127.0517949,예능(대)
428,동대문구,잉글리쉬무무학원,서울특별시 동대문구 천호대로 80,", 5층 (용두동)",37.5620882,127.0611565,입시.검정 및 보습
429,동대문구,스카이(SKY)뮤엠영어학원,서울특별시 동대문구 신이문로 37,", 4층 (이문동)",37.6032489,127.0651265,입시.검정 및 보습
430,동대문구,잇플코딩학원,서울특별시 동대문구 답십리로 264,", 2층 일부 (장안동)",37.5765595,127.0465065,기타(대)
431,동대문구,클랑음악학원,서울특별시 동대문구 신이문로 13,", 2층?3층 (이문동)",37.6032489,127.0651265,예능(대)
432,동대문구,물감뿜는고래미술학원,서울특별시 동대문구 전농로 36,", 2층 201호 일부 (답십리동)",37.5836734,127.0533383,예능(대)
433,동대문구,S153과학전문학원,서울특별시 동대문구 답십리로 291-1,", 4층 일부 (장안동)",37.57253515,127.07263904039448,입시.검정 및 보습
434,동대문구,퍼펙트박샘수학교습소,서울특별시 동대문구 답십리로 76,", 3층 (전농동)",37.5765595,127.0465065,입시.검정 및 보습
435,동대문구,푸른피아노교습소,서울특별시 동대문구 제기로 84,", 3층 일부(우측) (청량리동)",37.5867304,127.0389802,예능(대)
436,동대문구,연필로그리기미술교습소,서울특별시 동대문구 약령시로 12,", 1층 (제기동)",37.5828182,127.0351019,예능(대)
437,동대문구,푸른보습학원,서울특별시 동대문구 제기로 84,", 3층 일부(좌측) (청량리동)",37.5867304,127.0389802,입시.검정 및 보습
438,동대문구,쓰리원장안학원,서울특별시 동대문구 사가정로25길 46,", 3층 (장안동)",37.5808063,127.0710068,입시.검정 및 보습
439,동대문구,지존과학학원,서울특별시 동대문구 사가정로 206,", 3층 일부(우측) (장안동)",37.5701008,127.0489781,입시.검정 및 보습
440,동대문구,강북멘토스영재관학원,서울특별시 동대문구 왕산로 21,", 11층 1101호 (신설동, 민족통일대통령빌딩)",37.5774132,127.0295723,입시.검정 및 보습
441,동대문구,고등부관스카이학원,서울특별시 동대문구 망우로 101,", 3층 (휘경동)",37.5881081,127.0542659,입시.검정 및 보습
442,동대문구,이룸영어학원,서울특별시 동대문구 전농로 105-1,", 2층?3층 (답십리동)",37.56888,127.0571,입시.검정 및 보습
443,동대문구,강의하는아이들전농답십리학원,서울특별시 동대문구 사가정로5길 1,", 2층?3층 (전농동)",37.5765805,127.0555723,입시.검정 및 보습
444,동대문구,이윤진논술교습소,서울특별시 동대문구 장한로14길 81,", 상가동 301호 일부 (장안동, 래미안 장안아파트)",37.5655401,127.0708467,입시.검정 및 보습
445,동대문구,죠앤영어교습소,서울특별시 동대문구 사가정로17길 15,", 104호 (전농동, 래미안아름숲 상가)",37.578479,127.0600945,입시.검정 및 보습
446,동대문구,딥독융합논술학원,서울특별시 동대문구 사가정로 51,", 2층 (전농동)",37.5701008,127.0489781,입시.검정 및 보습
447,동대문구,동대문자라다남아미술학원,서울특별시 동대문구 답십리로72길 36,", 3층 일부 (장안동)",37.5688334,127.0729248,예능(대)
448,동대문구,나비댄스스포츠학원,서울특별시 동대문구 천호대로 281,", 2층 일부 (답십리동)",37.5620882,127.0611565,기예(대)
449,동대문구,알파영어교습소,서울특별시 동대문구 한천로33길 31,", 2층 일부 (좌측) (전농동)",37.5775414,127.0668073,입시.검정 및 보습
450,동대문구,제니퍼(Jennifer)영어교습소,서울특별시 동대문구 장한로32길 19,", 2층 일부  (장안동, 삼성리치캐슬)",37.575492800000006,127.07330954769668,입시.검정 및 보습
451,동대문구,보컬K실용음악학원,서울특별시 동대문구 장한로 20,", 5층 일부 (장안동)",37.561392,127.064624,예능(대)
452,동대문구,책읽는아이논술교습소,서울특별시 동대문구 장한로14길 70,", 가동 1층 일부(우측) (장안동)",37.5655401,127.0708467,입시.검정 및 보습
453,동대문구,아소비전농센터학원,서울특별시 동대문구 답십리로 83,", 4층 (전농동, 정우빌딩)",37.57488275,127.05010737645414,입시.검정 및 보습
454,동대문구,엄지척수학교습소,서울특별시 동대문구 천호대로55길 11,", 상가동 203호 (답십리동, 힐스테이트청계아파트)",37.5708504,127.0477184,입시.검정 및 보습
455,동대문구,링키영어해석학원,서울특별시 동대문구 이문로54길 46,", 상가동1 2층 201호?202호 및 3층 311호?312호 (이문동, 이문e편한세상아파트)",37.6050909,127.0625252,입시.검정 및 보습
456,동대문구,하이가든잉글리쉬(Hi Garden English)학원,서울특별시 동대문구 신이문로 25,", 2층?3층 (이문동)",37.6032489,127.0651265,입시.검정 및 보습
457,동대문구,한양키즈하우스학원,서울특별시 동대문구 답십리로 184,", 1층 일부?2층 (답십리동, 동서울한양아파트)",37.5765595,127.0465065,기타(대)
458,동대문구,채움미술교습소,서울특별시 동대문구 약령시로 13,", 1층 (제기동, 제기동다세대주택)",37.5828182,127.0351019,예능(대)
459,동대문구,씨앤씨학원,서울특별시 동대문구 답십리로 289,", 4층 일부 (장안동, 기륭빌딩)",37.572529,127.0723098,입시.검정 및 보습
460,동대문구,장탁순수학교습소,서울특별시 동대문구 이문로54길 46,", 207호, 208호 (이문동, 이문e편한세상아파트)",37.6050909,127.0625252,입시.검정 및 보습
461,동대문구,진리국어교습소,서울특별시 동대문구 장안벚꽃로 167,"주상가동 2층 228호(장안동,래미안장안2차아파트)",37.57299485,127.07495916113669,입시.검정 및 보습
462,동대문구,국어하다장안동국어학원,서울특별시 동대문구 장한로28길 18,", 2층 (장안동)",37.572817,127.0747149,입시.검정 및 보습
463,동대문구,파란국어학원,서울특별시 동대문구 장한로28길 22,", 2층 (장안동)",37.572817,127.0747149,입시.검정 및 보습
464,동대문구,지니얼(GENIAL)영어교습소,서울특별시 동대문구 망우로20길 46,", 2층 (휘경동)",37.590509499999996,127.06473654999999,입시.검정 및 보습
465,동대문구,엘프라임미술교습소,서울특별시 동대문구 사가정로 148,", 138동(주상가동) 403호 (전농동, 전농 SK아파트)",37.5701008,127.0489781,예능(대)
466,동대문구,데일리독서실,서울특별시 동대문구 이문로 186,", 2층 일부 (이문동)",37.5951782,127.0593706,독서실
467,동대문구,더올라학원,서울특별시 동대문구 전농로 136,", 3층 일부 (전농동)",37.5836734,127.0533383,입시.검정 및 보습
468,동대문구,한과학교습소,서울특별시 동대문구 사가정로17길 15,", 206호 (전농동, 래미안아름숲 상가)",37.578479,127.0600945,입시.검정 및 보습
469,동대문구,동대문올림피아드초등관학원,서울특별시 동대문구 답십리로 269,", 5층 (장안동, 화성빌딩)",37.5765595,127.0465065,입시.검정 및 보습
470,동대문구,지쌤사고력수학교습소,서울특별시 동대문구 장안벚꽃로 167,", 227호 (장안동, 래미안장안2차아파트)",37.57299485,127.07495916113669,입시.검정 및 보습
471,동대문구,매쓰트리수학교습소,서울특별시 동대문구 사가정로 148,", 141동 206호 (전농동, 전농 SK아파트)",37.5701008,127.0489781,입시.검정 및 보습
472,동대문구,생각하는황소(동대문)학원,서울특별시 동대문구 답십리로 303,", 2층 일부 (장안동)",37.572441,127.0739516,입시.검정 및 보습
473,동대문구,예술공감미술교습소,서울특별시 동대문구 사가정로25길 5,", 2층 일부 (장안동)",37.5799399,127.0710869,예능(대)
474,동대문구,컬러썬미술교습소,서울특별시 동대문구 약령시로 25,", 2층 206호 (제기동, 안암골 벽산아파트)",37.5828182,127.0351019,예능(대)
475,동대문구,그레가엑팅존(GREGA ACTING ZONE)학원,서울특별시 동대문구 답십리로 313-6,", 3층 (장안동)",37.5765595,127.0465065,기예(대)
476,동대문구,꿈비아트미술교습소,서울특별시 동대문구 사가정로 80,", 2층 215호 (답십리동, 답십리 뉴타운 카운티 에비뉴)",37.5701008,127.0489781,예능(대)
477,동대문구,비전컴퓨터학원,서울특별시 동대문구 장한로 68,", 2층 (장안동, JB타워)",37.561392,127.064624,직업기술
478,동대문구,이쌤창의수학교습소,서울특별시 동대문구 장안벚꽃로 107,", 208호 일부 (장안동, 장안현대홈타운)",37.577223,127.076452,입시.검정 및 보습
479,동대문구,뮤엠영어장안점영어교습소,서울특별시 동대문구 장안벚꽃로 107,", 208호 일부 (장안동, 장안현대홈타운)",37.577223,127.076452,입시.검정 및 보습
480,동대문구,초이스뮤지컬?액팅학원(CHOI's MUSICAL?ACTING 학원),서울특별시 동대문구 고산자로 534,", 3층 일부 (301~303호) (제기동, 한신아파트)",37.5747533,127.0379868,기타(대)
481,동대문구,엉클존의영어교습소(Uncle John's English),서울특별시 동대문구 사가정로 80,", 4층 416호 (답십리동, 답십리 뉴타운 카운티 에비뉴)",37.5701008,127.0489781,국제화
482,동대문구,조이(JOY)잉글리시영어교습소,서울특별시 동대문구 천호대로55길 11,", 206호 (답십리동, 힐스테이트 청계)",37.5708504,127.0477184,국제화
483,동대문구,진짜속기학원,서울특별시 동대문구 무학로28길 31,", 3층 일부 (용두동)",37.5740227,127.0316926,직업기술
484,동대문구,윌비잉글리시영어교습소,서울특별시 동대문구 회기로 121,", 2층 (회기동)",37.5916015,127.0500853,국제화
485,동대문구,옥스포드주니어영어교습소,서울특별시 동대문구 경희대로4길 79,", 3층 일부 (이문동)",37.5913675,127.0567283,입시.검정 및 보습
486,동대문구,빛나는하루학원,서울특별시 동대문구 사가정로 80,", 3층 312호 (답십리동, 답십리 뉴타운 카운티 에비뉴)",37.5701008,127.0489781,입시.검정 및 보습
487,동대문구,JW수학학원,서울특별시 동대문구 장한로26길 42,", 2층 (장안동, H?M 빌딩)",37.571531,127.073673,입시.검정 및 보습
488,동대문구,지감2수학교습소,서울특별시 동대문구 답십리로69길 11,", 3층 일부  (장안동)",37.5751937,127.0740928,입시.검정 및 보습
489,동대문구,열띤독서토론논술교습소,서울특별시 동대문구 답십리로 105,", 3층 (전농동)",37.5765595,127.0465065,입시.검정 및 보습
490,동대문구,공터영어전농센터학원,서울특별시 동대문구 사가정로 148,", 주상가동 307호 (전농동, 전농 SK아파트)",37.5701008,127.0489781,입시.검정 및 보습
491,동대문구,영어끝학원,서울특별시 동대문구 답십리로67길 9,", 2층 (장안동)",37.5734855,127.0697973,입시.검정 및 보습
492,동대문구,헤이발레교습소,서울특별시 동대문구 사가정로 80,", 4층 411호 (답십리동, 답십리 뉴타운 카운티 에비뉴)",37.5701008,127.0489781,예능(대)
493,동대문구,호두영어학원,서울특별시 동대문구 장한로 140,", 2층 2호 (장안동)",37.5728749,127.0720104,입시.검정 및 보습
494,동대문구,이화피아노음악학원,서울특별시 동대문구 사가정로 80,", 409호~410호 (답십리동, 답십리 뉴타운 카운티 에비뉴)",37.5701008,127.0489781,예능(대)
495,동대문구,드릴스터디2관학원,서울특별시 동대문구 망우로16길 20,", 3층 일부 (휘경동)",37.5892998,127.06101718645667,입시.검정 및 보습
496,동대문구,오름학원,서울특별시 동대문구 경희대로 15,", 3층 (회기동)",37.593782,127.0526752,입시.검정 및 보습
497,동대문구,이화아르떼피아노음악교습소,서울특별시 동대문구 장안벚꽃로1길 7,", 상가동 205호 (장안동, 장안 힐스테이트)",37.5758365,127.07624819537963,예능(대)
498,동대문구,맑은소리피아노음악교습소,서울특별시 동대문구 한천로58길 47,", 상가동 208호 (이문동, 쌍용아파트)",37.5986527,127.06883,예능(대)
499,동대문구,베르디음악학원,서울특별시 동대문구 휘경로 42,", 3층 (휘경동)",37.59455515,127.06434380783455,예능(대)
500,동대문구,하루의그림책미술교습소,서울특별시 동대문구 장안벚꽃로1길 7,", 204-3호 (장안동, 장안 힐스테이트)",37.5758365,127.07624819537963,예능(대)
501,동대문구,더쌤영어수학1관전문학원,서울특별시 동대문구 장안벚꽃로1길 7,", 204-1, 204-2호  (장안동, 장안 힐스테이트)",37.5758365,127.07624819537963,입시.검정 및 보습
502,동대문구,마이윌(My Will)보습학원,서울특별시 동대문구 한천로46길 42,", 2층 일부 (장안동, 장안동 마루하우스)",37.5814761,127.07072307961084,입시.검정 및 보습
503,동대문구,차승안피아노스튜디오음악학원,서울특별시 동대문구 사가정로 80,", 3층 301~302호 (답십리동, 답십리 뉴타운 카운티 에비뉴)",37.5701008,127.0489781,예능(대)
504,동대문구,유니수학교습소,서울특별시 동대문구 사가정로 148,", 주상가동 304-2호 (전농동, 전농 SK아파트)",37.5701008,127.0489781,입시.검정 및 보습
505,동대문구,매쓰맥스(MATHMAX)수학학원,서울특별시 동대문구 장한로25길 2,", 6층 (장안동)",37.571824,127.0696134,입시.검정 및 보습
506,동대문구,씨투엠브레인창의수학교습소,서울특별시 동대문구 장안벚꽃로 167,", 204호 (장안동, 래미안장안2차아파트)",37.57299485,127.07495916113669,입시.검정 및 보습
507,동대문구,빌드앤그로우영어학원,서울특별시 동대문구 전농로 116,", 2층 (답십리동)",37.5836734,127.0533383,입시.검정 및 보습
508,동대문구,봄국어전문본관학원,서울특별시 동대문구 장한로26길 28,", 2층, 3층, 4층 (장안동)",37.571531,127.073673,입시.검정 및 보습
509,동대문구,정명영어교습소,서울특별시 동대문구 이문로54길 46,", 203~204호  (이문동, 이문e편한세상아파트)",37.6050909,127.0625252,입시.검정 및 보습
510,동대문구,오메가수학교습소,서울특별시 동대문구 한천로33길 31,", 2층 일부 (우측) (전농동)",37.5775414,127.0668073,입시.검정 및 보습
511,동대문구,EiE장안캠퍼스어학원,서울특별시 동대문구 답십리로 293,", 3층 일부  (장안동)",37.5765595,127.0465065,국제화
512,동대문구,와이즈(WHY's)학원,서울특별시 동대문구 이문로 206,", 2층 (이문동)",37.5951782,127.0593706,입시.검정 및 보습
513,동대문구,한우리독서토론논술전농래미안논술교습소,서울특별시 동대문구 사가정로 65,", 206호 (전농동, 래미안 크레시티)",37.5701008,127.0489781,입시.검정 및 보습
514,동대문구,봄봄수학교습소,서울특별시 동대문구 외대역동로 17,", 2층 (휘경동)",37.591006199999995,127.06753060143836,입시.검정 및 보습
515,동대문구,조각공간몸미술교습소,서울특별시 동대문구 망우로16길 20,", 2층 일부 (휘경동)",37.5892998,127.06101718645667,예능(대)
516,동대문구,동부형설2관학원,서울특별시 동대문구 장한로 139,", 2층 일부 (장안동)",37.561392,127.064624,입시.검정 및 보습
517,동대문구,케이드림간호학원,서울특별시 동대문구 보문로 6,", 3층, 4층 일부 (신설동)",37.5761363837871,127.023530607859,직업기술
518,동대문구,블루밍해플라워디자인학원,서울특별시 동대문구 왕산로 240,", 3층 일부  (전농동)",37.5825861,127.04876445,기예(대)
519,동대문구,영어끝본관학원,서울특별시 동대문구 한천로 136,", 3층 (장안동)",37.5702311,127.0642937,입시.검정 및 보습
520,동대문구,베이스학원,서울특별시 동대문구 사가정로25길 41,", 2층 일부 (장안동)",37.5808337,127.07060727956215,입시.검정 및 보습
521,동대문구,더깊은수학교습소,서울특별시 동대문구 사가정로 65,", 217호 (전농동, 래미안 크레시티)",37.5701008,127.0489781,입시.검정 및 보습
522,동대문구,창공국어교습소,서울특별시 동대문구 장한로32길 17,", 301호 일부 (장안동, 현진빌딩)",37.5753465,127.0730834,입시.검정 및 보습
523,동대문구,성원수학교습소,서울특별시 동대문구 장한로32길 17,", 501호 일부 (장안동, 현진빌딩)",37.5753465,127.0730834,입시.검정 및 보습
524,동대문구,절대영어학원,서울특별시 동대문구 장한로28길 24,", 2층 (장안동)",37.572817,127.0747149,입시.검정 및 보습
525,동대문구,앨리스수학학원,서울특별시 동대문구 전농로10길 20,", 204호, 205호 (답십리동, 답십리청솔우성아파트)",37.5767327,127.0630182,입시.검정 및 보습
526,동대문구,유리한수수학교습소,서울특별시 동대문구 장한로 121,", 201호 (장안동, 장안동 퍼스티지 더올림)",37.561392,127.064624,입시.검정 및 보습
527,동대문구,홍익바다미술학원,서울특별시 동대문구 장안벚꽃로 107,", 214호 (장안동, 장안현대홈타운)",37.577223,127.076452,예능(대)
528,동대문구,뽀엥뜨발레아카데미발레교습소,서울특별시 동대문구 청계천로 471,", 201호 (용두동, 청계천 대성 스카이렉스2)",37.5708806,127.033092,예능(대)
529,동대문구,예림간호학원,서울특별시 동대문구 한천로 189,", 4층 일부 (장안동)",37.5702311,127.0642937,직업기술
530,동대문구,88댄스학원,서울특별시 동대문구 천호대로69길 12,", 301-1, 302, 303, 304호 (답십리동, 골든메카)",37.5693906,127.0524154,기예(대)
531,동대문구,이고은바이올린학원,서울특별시 동대문구 답십리로 145,", 4층 (답십리동)",37.5765595,127.0465065,예능(대)
532,동대문구,씨앤씨주니어어학원,서울특별시 동대문구 전농로 60,", 5층, 6층 (답십리동, 상원빌딩)",37.5836734,127.0533383,국제화
533,동대문구,조이스감성미술학원,서울특별시 동대문구 신이문로 24,", 1층 일부 (이문동)",37.6032489,127.0651265,예능(대)
534,동대문구,오르다샘앤클래스동대문답십리학원,서울특별시 동대문구 답십리로 140,", 405호 (답십리동, 세기프라자)",37.5765595,127.0465065,기타(대)
535,동대문구,아담리즈수학학원,서울특별시 동대문구 답십리로 140,", 305~306호 (답십리동, 세기프라자)",37.5765595,127.0465065,기타(대)
536,동대문구,수다방학원,서울특별시 동대문구 답십리로 273,", 2층 (장안동, 한양빌딩)",37.5765595,127.0465065,입시.검정 및 보습
537,동대문구,투더맥스(TO THE MAX)학원,서울특별시 동대문구 장한로 137,", 3층 (장안동)",37.561392,127.064624,입시.검정 및 보습
538,동대문구,이루다영어교습소,서울특별시 동대문구 사가정로 136,", 2층 일부 (전농동)",37.5701008,127.0489781,입시.검정 및 보습
539,동대문구,이스팀영어교습소,서울특별시 동대문구 장한로32길 17,", 301호 일부 (장안동, 현진빌딩)",37.5753465,127.0730834,입시.검정 및 보습
540,동대문구,서연음악학원,서울특별시 동대문구 홍릉로10길 48,", 102호, 103호 (청량리동, 홍릉동부아파트)",37.5862387,127.0459102,예능(대)
541,동대문구,토대영어교습소,서울특별시 동대문구 장한로 158,", 4층 일부 (장안동, 대흥빌딩)",37.561392,127.064624,입시.검정 및 보습
542,동대문구,리드앤톡영어교습소,서울특별시 동대문구 전농로 97-1,", 3층 (답십리동)",37.5836734,127.0533383,국제화
543,동대문구,배경영어교습소,서울특별시 동대문구 사가정로 148,", 103-2호 (전농SK아파트부상가동1) (전농동, 전농 SK아파트)",37.5701008,127.0489781,입시.검정 및 보습
544,동대문구,1관수학생각학원,서울특별시 동대문구 장한로28길 18,", 3층 (장안동)",37.572817,127.0747149,입시.검정 및 보습
545,동대문구,웨일영어교습소,서울특별시 동대문구 사가정로 148,", 305-1호 (전농동, 전농 SK아파트)",37.5701008,127.0489781,입시.검정 및 보습
546,동대문구,리드업잉글리쉬학원,서울특별시 동대문구 한천로 264,", 302호 (휘경동)",37.5702311,127.0642937,입시.검정 및 보습
547,동대문구,도토리미술교습소,서울특별시 동대문구 전농로10길 20,", 310호 일부 (답십리동, 답십리청솔우성아파트)",37.5767327,127.0630182,예능(대)
548,동대문구,톤앤톤미술교습소,서울특별시 동대문구 서울시립대로 78,", 2층 일부 (전농동)",37.5760293,127.0471019,예능(대)
549,동대문구,잇플영어학원,서울특별시 동대문구 답십리로 264,", 3층 일부 (장안동)",37.5765595,127.0465065,입시.검정 및 보습
550,동대문구,유니팝휘경센터미술교습소,서울특별시 동대문구 휘경로 60,", 106호 일부 (휘경동, 휘경에스케이뷰)",37.5936949,127.06729172915257,예능(대)
551,동대문구,리딩톡학원,서울특별시 동대문구 사가정로17길 15,", 201호 (전농동, 래미안아름숲 상가)",37.578479,127.0600945,입시.검정 및 보습
552,동대문구,썸잉글리쉬영어교습소,서울특별시 동대문구 장안벚꽃로 107,", 205호 (장안동, 장안현대홈타운)",37.577223,127.076452,국제화
553,동대문구,솔루니답십리논술교습소,서울특별시 동대문구 전농로11길 43,", 101호 (답십리동, 스타팰리스)",37.5757843,127.0573185,입시.검정 및 보습
554,동대문구,수학짱수학교습소,서울특별시 동대문구 망우로20길 87,", 2층 (휘경동)",37.5909785,127.06722642862903,입시.검정 및 보습
555,동대문구,강북멘토스경희관학원,서울특별시 동대문구 이문로 91,", 301호 (이문동)",37.5951782,127.0593706,입시.검정 및 보습
556,동대문구,해만(Haeman)온라인학원,서울특별시 동대문구 한빛로 20,", 607호 (신설동)",37.5790926,127.0269051,입시.검정 및 보습
557,동대문구,장안창조의아침미술학원,서울특별시 동대문구 장안벚꽃로 107,", 213-1호 (장안동, 장안현대홈타운)",37.577223,127.076452,예능(대)
558,동대문구,아트그라운드U미술교습소,서울특별시 동대문구 사가정로 65,", 204호 (전농동, 래미안 크레시티)",37.5701008,127.0489781,예능(대)
559,동대문구,애플트리미술학원,서울특별시 동대문구 약령시로 16,", 5층 일부 (제기동)",37.5828182,127.0351019,예능(대)
560,동대문구,꿈터수학교습소,서울특별시 동대문구 휘경로2가길 21,", 4층 일부 (이문동, 행복하우스)",37.5952985,127.0620408,입시.검정 및 보습
561,동대문구,캠퍼스브릿지양성학원,서울특별시 동대문구 서울시립대로29길 5-2,", 1층 일부 (전농동)",37.5853803,127.0550601,종합(대)
562,동대문구,예섬학원,서울특별시 동대문구 전농로 36,", 201호 일부 (답십리동, 답십리포레스트스퀘어)",37.5836734,127.0533383,입시.검정 및 보습
563,동대문구,마테오뮤직아카데미음악학원,서울특별시 동대문구 사가정로23가길 11,", 4층 (장안동, 소망빌딩)",37.5806118,127.0706996,예능(대)
564,동대문구,큐브레인수학교습소,서울특별시 동대문구 장안벚꽃로1길 7,", 1층 117호 (장안동, 장안힐스테이트상가)",37.5758365,127.07624819537963,입시.검정 및 보습
565,동대문구,기탄리딩오션학원,서울특별시 동대문구 장한로28길 48,", 2층 일부?3층 일부 (장안동)",37.572664950000004,127.07461485,입시.검정 및 보습
566,동대문구,잉글리드(ENGLEAD)어학원,서울특별시 동대문구 답십리로69길 55,", 2층 206?207호 (장안동, 웰빙프라자)",37.5747609,127.0739723,국제화
567,동대문구,그림이야기미술학원,서울특별시 동대문구 답십리로 140,", 5층 502호 일부 (답십리동, 세기프라자)",37.5765595,127.0465065,예능(대)
568,동대문구,메이트학원,서울특별시 동대문구 전농로 55,", 2층 (답십리동)",37.5836734,127.0533383,입시.검정 및 보습
569,동대문구,꿀수학교습소,서울특별시 동대문구 정릉천동로 58,", 3층 314호 (용두동, 롯데캐슬피렌체)",37.5769778,127.0354867,입시.검정 및 보습
570,동대문구,렉슬잉글리쉬영어교습소,서울특별시 동대문구 장안벚꽃로 167,", 2층 225호 (장안동, 래미안장안2차아파트)",37.57299485,127.07495916113669,입시.검정 및 보습
571,동대문구,더탐구수학교습소,서울특별시 동대문구 신이문로 8-1,", 2층 (이문동)",37.6032489,127.0651265,입시.검정 및 보습
572,동대문구,영렘브란트미술교습소,서울특별시 동대문구 답십리로69길 55,", 1층 109호 (장안동, 웰빙프라자)",37.5747609,127.0739723,예능(대)
573,동대문구,펜타영어교습소,서울특별시 동대문구 정릉천동로 58,", 3층 308호 (용두동, 롯데캐슬피렌체)",37.5769778,127.0354867,입시.검정 및 보습
574,동대문구,SU뮤직음악학원,서울특별시 동대문구 무학로 123,", 4층 (용두동)",37.571983,127.0305029,예능(대)
575,동대문구,비지엠(Be:GM)댄스학원,서울특별시 동대문구 이문로 85,", 3층 (이문동)",37.5951782,127.0593706,예능(대)
576,동대문구,동아콘서바토리전산학원,서울특별시 동대문구 홍릉로 28,", 4층 일부 (청량리동, 성일빌딩)",37.5890791,127.042687,직업기술
577,동대문구,뮤엠영어장안점학원,서울특별시 동대문구 답십리로 305,", 3층 일부 (장안동)",37.5723385,127.0744437,입시.검정 및 보습
578,동대문구,J무용아카데미학원,서울특별시 동대문구 장한로28길 50,", 2층 일부(좌측) (장안동)",37.5726621,127.0747791,예능(대)
579,동대문구,더주노영어학원,서울특별시 동대문구 답십리로69길 8,", 5층 일부(우측) (장안동, 장안동근린생활시설)",37.572703,127.0740001,입시.검정 및 보습
580,동대문구,플레이팩토창의수학교습소,서울특별시 동대문구 한천로58길 47,", 상가동 2층 201호 (이문동, 쌍용아파트)",37.5986527,127.06883,입시.검정 및 보습
581,동대문구,공터영어신답센터영어교습소,서울특별시 동대문구 서울시립대로 31,", 102동 112호 (전농동, 동아아파트)",37.5760293,127.0471019,입시.검정 및 보습
582,동대문구,아소비휘경센터학원,서울특별시 동대문구 한천로 246,", 유치원동 3층 일부 (휘경동, 주공아파트)",37.582816300000005,127.0687545468601,입시.검정 및 보습
583,동대문구,위에듀학원,서울특별시 동대문구 답십리로23길 58,", 2층 (전농동)",37.5774527,127.0506786,입시.검정 및 보습
584,동대문구,미래영어교습소,서울특별시 동대문구 전농로3길 106-4,", 1층 (답십리동)",37.5714685,127.0569387,국제화
585,동대문구,삼성영어휘경써밋학원,서울특별시 동대문구 한천로 246,", 유치원동 3층 일부(우측) (휘경동, 주공아파트)",37.582816300000005,127.0687545468601,입시.검정 및 보습
586,동대문구,최강국어교습소,서울특별시 동대문구 무학로44길 8,", 2층 일부(우측) (용두동)",37.581694999999996,127.03268188122371,입시.검정 및 보습
587,동대문구,이선생최강논술교습소,서울특별시 동대문구 무학로44길 8,", 2층 일부(좌측) (용두동)",37.581694999999996,127.03268188122371,입시.검정 및 보습
588,동대문구,플라톤스카이논술교습소,서울특별시 동대문구 사가정로 149,", 4층 (전농동)",37.5701008,127.0489781,입시.검정 및 보습
589,동대문구,힐사이드컬리지잇주니어왕십리뉴타운어학원,서울특별시 동대문구 한빛로 39,", 3층 301?302호 (용두동, 오션타워빌)",37.5790926,127.0269051,국제화
590,동대문구,베리트실용음악별관학원,서울특별시 동대문구 전농로 41,", 2층 (답십리동)",37.5836734,127.0533383,예능(대)
591,동대문구,배봉하연과학교습소,서울특별시 동대문구 한천로39길 27,", 3층 일부 (전농동)",37.5779649,127.0672604,입시.검정 및 보습
592,동대문구,지엔스잉글리쉬(GN’s English)학원,서울특별시 동대문구 사가정로 148,", 138동(주상가동) 4층 413-1호 (전농동, 전농SK아파트)",37.5701008,127.0489781,입시.검정 및 보습
593,동대문구,밈교육연구소학원,서울특별시 동대문구 고산자로28길 49,", 2층 (용두동)",37.5750303,127.038486,예능(대)
594,동대문구,숨미술학원,서울특별시 동대문구 이문로 45,", 3층 (이문동)",37.5947586,127.0595165,예능(대)
595,동대문구,제일요리아카데미학원,서울특별시 동대문구 천호대로 425,", 2층 (장안동)",37.5620882,127.0611565,직업기술
596,동대문구,생각쟁이독서논술교습소,서울특별시 동대문구 장안벚꽃로 167,", 2층 215호 (장안동, 래미안장안2차아파트)",37.57299485,127.07495916113669,입시.검정 및 보습
597,동대문구,그림마을미술교습소,서울특별시 동대문구 망우로10길 41,", 1층 중앙 (휘경동)",37.5883167,127.0576767,예능(대)
598,동대문구,문수학교습소,서울특별시 동대문구 전농로 150-1,", 3층 (전농동)",37.56888,127.0571,입시.검정 및 보습
599,동대문구,4퍼센트사회교습소,서울특별시 동대문구 장한로 158,", 4층 405호 (장안동, 대흥빌딩)",37.561392,127.064624,입시.검정 및 보습
600,동대문구,태성실용음악학원,서울특별시 동대문구 답십리로 276,", 4층 (장안동)",37.5765595,127.0465065,예능(대)
601,동대문구,엠베스트SE공부습관8640학원,서울특별시 동대문구 천호대로91길 89,", 3층 (장안동)",37.563368,127.0695613,입시.검정 및 보습
602,동대문구,꿈영어학원,서울특별시 동대문구 답십리로72길 18,", 6층 (장안동, 리더스빌딩)",37.5688334,127.0729248,입시.검정 및 보습
603,동대문구,에듀코치개별지도이문학원,서울특별시 동대문구 이문로 75,", 3층 (이문동)",37.5951782,127.0593706,입시.검정 및 보습
604,동대문구,정철젭스(JEBS)영어학원,서울특별시 동대문구 무학로 122,", 3층 (용두동)",37.571983,127.0305029,입시.검정 및 보습
605,동대문구,꾸믈유니팝미술학원,서울특별시 동대문구 이문로 190,", 2층 201호 (이문동)",37.5951782,127.0593706,예능(대)
606,동대문구,영어하다초중등관학원,서울특별시 동대문구 장한로 166,", 3층 일부 (장안동)",37.561392,127.064624,입시.검정 및 보습
607,동대문구,파란학원,서울특별시 동대문구 장한로28길 12,", 2층 (장안동)",37.5728863,127.0725286,입시.검정 및 보습
608,동대문구,김정윤초등영어학원,서울특별시 동대문구 이문로 38,", 6층 601호 (휘경동, 민족통일빌딩)",37.5951782,127.0593706,입시.검정 및 보습
609,동대문구,안상미국어학원,서울특별시 동대문구 답십리로 291-4,", 4층 (장안동)",37.5765595,127.0465065,입시.검정 및 보습
610,동대문구,하이엔드영어학원,서울특별시 동대문구 답십리로72길 22,", 3층 (장안동)",37.5688334,127.0729248,입시.검정 및 보습
611,동대문구,툰스테이션미술학원,서울특별시 동대문구 전농로 133,", 3층 (전농동)",37.5836734,127.0533383,예능(대)
612,동대문구,차이홍중국어동대문중국어교습소,서울특별시 동대문구 사가정로 148,", 308-1호 (전농동, 전농 SK아파트)",37.5701008,127.0489781,국제화
613,동대문구,BH수학학원,서울특별시 동대문구 정릉천동로 58,", 2층 204호 (용두동, 롯데캐슬피렌체)",37.5769778,127.0354867,입시.검정 및 보습
614,동대문구,형설학습관리관독서실,서울특별시 동대문구 장한로 124,", 3층 (장안동)",37.561392,127.064624,독서실
615,동대문구,이동규수학학원,서울특별시 동대문구 망우로 122-1,", 3층 (휘경동, 거부빌딩)",37.5881081,127.0542659,입시.검정 및 보습
616,동대문구,더바른수학교습소,서울특별시 동대문구 장안벚꽃로 167,", 2층 221호 (장안동, 래미안장안2차아파트)",37.57299485,127.07495916113669,입시.검정 및 보습
617,동대문구,미래에어컨아카데미학원,서울특별시 동대문구 천호대로 14,", 4층 (신설동)",37.5620882,127.0611565,직업기술
618,동대문구,예일현악음악학원,서울특별시 동대문구 왕산로28길 37,", 1층 (용두동)",37.5766825,127.0389502,예능(대)
619,동대문구,그레이스뮤직음악교습소,서울특별시 동대문구 서울시립대로4길 25,", 1층 일부(좌측) (전농동)",37.5747236,127.0473065,예능(대)
620,동대문구,라라첼로스튜디오음악교습소,서울특별시 동대문구 사가정로 80,", 1층 130호 (답십리동, 답십리 뉴타운 카운티 에비뉴)",37.5701008,127.0489781,예능(대)
621,동대문구,더잉글리쉬학원,서울특별시 동대문구 장한로18길 36,", 3층 (장안동)",37.5672493,127.0717396,입시.검정 및 보습
622,동대문구,녹스빌학원,서울특별시 동대문구 전농로 55,", 3층 (답십리동)",37.5836734,127.0533383,입시.검정 및 보습
623,동대문구,공감리드인학원,서울특별시 동대문구 서울시립대로4길 35,3층 일부,37.5747236,127.0473065,입시.검정 및 보습
624,동대문구,더프렙잉글리쉬영어교습소,서울특별시 동대문구 장안벚꽃로 167,래미안장안2차아파트 주상가동 2층 223호,37.57299485,127.07495916113669,입시.검정 및 보습
625,동대문구,아트앤하트답십리세기미술교습소,서울특별시 동대문구 답십리로 140,2층 201호(답십리동),37.5765595,127.0465065,예능(대)
626,동대문구,사고력처음수학교습소,서울특별시 동대문구 답십리로30길 13,1층(답십리동),37.5741492,127.0483699,입시.검정 및 보습
627,동대문구,탄탄수학교습소,서울특별시 동대문구 전농로9길 7-11,2층 201호(답십리동),37.5744707,127.0572284,입시.검정 및 보습
628,동대문구,조이피아노음악학원,서울특별시 동대문구 답십리로 145,3층 (답십리동),37.5765595,127.0465065,예능(대)
629,동대문구,민플루트스튜디오음악교습소,서울특별시 동대문구 장안벚꽃로1길 7,"1층 107호(장안동,장안 힐스테이트)",37.5758365,127.07624819537963,예능(대)
630,동대문구,웅진씽크빅스마트올클래스안평학원,서울특별시 동대문구 답십리로72길 114,유림빌딩 4층 (장안동),37.5688334,127.0729248,입시.검정 및 보습
631,동대문구,서양음악당음악교습소,서울특별시 동대문구 장한로14길 62,가동 1층 좌측 (장안동),37.5655401,127.0708467,입시.검정 및 보습
632,동대문구,매쓰메카수학교습소,서울특별시 동대문구 장한로28가길 45,5층 502호(장안동),37.5763332,127.0728807,입시.검정 및 보습
633,동대문구,덕수보습학원,서울특별시 동대문구 전농로 135,5층 (전농동),37.56888,127.0571,입시.검정 및 보습
634,동대문구,이룸영어2학원,서울특별시 동대문구 전농로 118,2층 일부 (전농동),37.5836734,127.0533383,입시.검정 및 보습
635,동대문구,뮤엠영어답십리점영어교습소,서울특별시 동대문구 답십리로45길 8,2층(답십리동),37.5756734,127.05503,입시.검정 및 보습
636,동대문구,그리니잉글리쉬(GreenyEnglish)영어교습소,서울특별시 동대문구 장안벚꽃로 167,"2층 224호(장안동,래미안장안2차아파트)",37.57299485,127.07495916113669,국제화
637,동대문구,킹메이커스아카데미컴퓨터원격학원,서울특별시 동대문구 답십리로57길 3-9,101호(지층) 일부(답십리동),37.5749049,127.0616494,직업기술
638,동대문구,헬렌쌤영어교습소,서울특별시 동대문구 답십리로60길 66,", 1층 일부 (답십리동)",37.5679138,127.06204,입시.검정 및 보습
639,동대문구,두뇌로논술교습소,서울특별시 동대문구 사가정로 148,전농SK아파트 상가139동 201호 (전농동),37.5701008,127.0489781,입시.검정 및 보습
640,동대문구,동대문대성엔학원,서울특별시 동대문구 사가정로 80,", 2층 211~213호 (답십리동)",37.5701008,127.0489781,입시.검정 및 보습
641,동대문구,명석학원,서울특별시 동대문구 제기로 46,", 2층 (제기동)",37.5867304,127.0389802,입시.검정 및 보습
642,동대문구,휘경교일학원,서울특별시 동대문구 망우로 71,", 3층 (휘경동)",37.5900238,127.06121595781059,입시.검정 및 보습
643,동대문구,더클래식음악학원,서울특별시 동대문구 약령시로 14,", 2층 (제기동,성금빌딩)",37.5828182,127.0351019,예능(대)
644,동대문구,아이비아카데미학원,서울특별시 동대문구 천호대로91길 42,2층 (장안동),37.563368,127.0695613,입시.검정 및 보습
645,동대문구,고려GnB아이음악학원,서울특별시 동대문구 전농로 35,2층 (답십리동),37.56888,127.0571,종합(대)
646,동대문구,모짤테움음악학원,서울특별시 동대문구 장안벚꽃로 107,현대홈타운아파트상가 308호 (장안동),37.577223,127.076452,예능(대)
647,동대문구,한국전통과학아카데미학원,서울특별시 동대문구 왕산로2길 22,화니빌딩4층일부 (신설동),37.5752633,127.0256439,직업기술
648,동대문구,박샘플러스에듀학원,서울특별시 동대문구 답십리로56길 21-1,두산아파트 상가동301호 (답십리동),37.5687047,127.0587649,입시.검정 및 보습
649,동대문구,시매쓰장안점보습학원,서울특별시 동대문구 답십리로69길 55,", 302호, 303호 (장안동, 웰빙프라자)",37.5747609,127.0739723,입시.검정 및 보습
650,동대문구,더샵피아노음악교습소,서울특별시 동대문구 한천로58길 107,", 상가동 3층 301?302호 (이문동, 현대아파트)",37.5986527,127.06883,예능(대)
651,동대문구,청아음악교습소,서울특별시 동대문구 전농로10길 20,청솔우성아파트상가 303호 (답십리동),37.5767327,127.0630182,예능(대)
652,동대문구,세움학원,서울특별시 동대문구 장한로 26,", 3층 (장안동)",37.561392,127.064624,입시.검정 및 보습
653,동대문구,주니어학원,서울특별시 동대문구 신이문로9길 5-2,명빌딩4층 (이문동),37.6042001,127.0632287,입시.검정 및 보습
654,동대문구,E&B보습학원,서울특별시 동대문구 한천로58길 75-19,", 2층 일부 (이문동)",37.5986527,127.06883,입시.검정 및 보습
655,동대문구,이화발레아카데미학원,서울특별시 동대문구 장안벚꽃로 107,", 상가1동 301호 일부, 302호 (장안동, 장안현대홈타운)",37.577223,127.076452,예능(대)
656,동대문구,김은혜피아노교습소,서울특별시 동대문구 이문로54길 46,이문E편한세상아파트 상가동3층307호 (이문동),37.6050909,127.0625252,예능(대)
657,동대문구,수재탑학원,서울특별시 동대문구 답십리로 133,", 4층 (답십리동)",37.5765595,127.0465065,입시.검정 및 보습
658,동대문구,이재희음악교습소,서울특별시 동대문구 서울시립대로 31,동아아파트102동 210호,37.5760293,127.0471019,예능(대)
659,동대문구,홍익아트미술교습소,서울특별시 동대문구 고산자로 534,한신아파트상가동 201호(제기동),37.5747533,127.0379868,예능(대)
660,동대문구,정은피아노교습소,서울특별시 동대문구 한천로58길 107,현대아파트상가동 201호 (이문동),37.5986527,127.06883,예능(대)
661,동대문구,봄국어전문별관1학원,서울특별시 동대문구 장한로26길 32,", 4층 일부 (장안동)",37.571531,127.073673,입시.검정 및 보습
662,동대문구,동부형설보습학원,서울특별시 동대문구 장한로 139,", 5층 (장안동)",37.561392,127.064624,입시.검정 및 보습
663,동대문구,옥스포드학원,서울특별시 동대문구 서울시립대로4길 5,", 2층 (전농동)",37.5747236,127.0473065,입시.검정 및 보습
664,동대문구,한림원보습학원,서울특별시 동대문구 이문로1길 21,", 상가302호일부, 303호, 304호 (회기동, 청량리신현대아파트)",37.5889719,127.0537317,입시.검정 및 보습
665,동대문구,은소리음악교습소,서울특별시 동대문구 이문로54길 46,이문E편한세상아파트 상가동212호 (이문동),37.6050909,127.0625252,예능(대)
666,동대문구,디딤돌보습학원,서울특별시 동대문구 이문로 82,(4층) (이문동),37.5951782,127.0593706,입시.검정 및 보습
667,동대문구,래미안음악학원,서울특별시 동대문구 장한로28길 50,3층 (장안동),37.5726621,127.0747791,예능(대)
668,동대문구,해냄학원,서울특별시 동대문구 황물로 42,", 2층 6호?7호 (답십리동)",37.5710005,127.0496624,입시.검정 및 보습
669,동대문구,이룸미술교습소,서울특별시 동대문구 장한로14길 81,", 302호일부 (장안동,래미안 장안아파트)",37.5655401,127.0708467,예능(대)
670,동대문구,휘경음악교습소,서울특별시 동대문구 한천로 250,주공A상가206호 (휘경동),37.58321345,127.06860320892619,예능(대)
671,동대문구,이고은바이올린교습소,서울특별시 동대문구 무학로 202,", 2층 202호 (제기동, 라이온스파스텔)",37.571983,127.0305029,예능(대)
